sno,sna,sarea,lng,lat,707,708,709,710,711,712,713,714,715,716,717,718,719,720,721,722,723,724
1,捷運市政府站(3號出口),信義區,121.5679044,25.04085789,66,56,36,75,90,115,115,147,155,124,112,103,97,95,97,18,52,22
2,捷運國父紀念館站(2號出口),大安區,121.55742,25.041254,32,20,17,6,10,26,37,38,17,14,2,25,25,17,8,16,3,7
3,台北市政府,信義區,121.5651694,25.03779722,15,8,11,16,20,20,15,16,13,23,20,16,26,32,25,2,21,8
4,市民廣場,信義區,121.562325,25.03603611,33,36,38,37,39,43,44,46,48,50,48,37,34,29,24,12,7,12
5,興雅國中,信義區,121.5686639,25.03656389,13,17,27,32,23,44,31,26,32,40,19,21,19,33,34,16,33,6
6,臺北南山廣場,信義區,121.565973,25.034047,11,12,14,26,34,46,56,54,65,61,41,43,48,41,40,26,16,15
7,信義廣場(台北101),信義區,121.5656194,25.03303889,18,22,12,10,31,76,67,59,59,64,56,54,54,40,9,2,16,9
8,世貿三館,信義區,121.5636889,25.03521389,13,18,23,28,40,45,41,46,48,47,41,35,26,23,17,11,1,15
9,松德站,信義區,121.57448,25.031785,30,31,22,13,9,1,0,18,20,14,13,10,13,14,19,21,23,23
10,台北市災害應變中心,信義區,121.5661167,25.02866111,20,35,35,33,21,6,6,18,12,1,5,13,3,8,14,25,30,47
11,三張犁,信義區,121.55762,25.034937,49,26,35,30,24,22,12,9,11,8,16,13,17,16,15,16,36,42
12,臺北醫學大學,信義區,121.561747,25.026679,11,19,17,21,26,11,21,8,8,11,9,5,1,3,8,10,13,24
13,福德公園,信義區,121.58367,25.03809,26,49,43,43,43,38,36,34,25,26,22,0,4,11,28,21,30,21
14,榮星花園,中山區,121.54037,25.06424,24,21,23,13,25,13,10,6,11,6,6,9,23,4,12,25,7,26
15,饒河夜市,松山區,121.571885,25.049845,40,36,32,34,36,35,40,33,32,31,26,35,30,32,36,33,40,45
16,松山家商,信義區,121.579135,25.036084,25,20,16,13,11,8,9,6,7,9,1,5,5,5,13,23,43,42
17,民生光復路口,松山區,121.55514,25.05862,18,15,12,8,7,16,18,20,23,23,30,29,27,30,17,17,20,25
18,臺北市藝文推廣處,松山區,121.552278,25.048268,20,26,19,11,18,24,16,17,35,35,21,17,17,18,19,11,12,15
19,象山公園,信義區,121.56981,25.02863,13,20,12,17,16,17,6,0,3,25,21,26,21,8,24,18,6,2
20,捷運科技大樓站,大安區,121.543293,25.025896,45,46,15,27,40,41,33,39,26,19,52,40,25,40,65,57,59,40
21,民生敦化路口,松山區,121.548982,25.057985,20,21,25,28,28,25,25,27,24,36,27,24,20,17,21,25,22,14
22,松山車站,信義區,121.57845,25.048824,8,22,11,8,26,38,23,26,27,28,20,13,22,19,14,1,1,11
23,東新國小,南港區,121.602798,25.055074,19,17,12,25,18,17,11,12,14,12,7,14,13,23,13,18,26,27
24,信義建國路口,大安區,121.53747,25.03293,34,34,6,8,17,16,26,25,19,20,43,1,4,3,3,2,0,4
25,永吉松信路口,信義區,121.57205,25.04543,21,14,7,3,17,6,18,16,1,14,13,13,18,12,8,8,20,17
26,捷運昆陽站(1號出口),南港區,121.592375,25.050142,20,21,21,17,18,23,28,31,33,25,34,27,23,24,23,22,13,15
27,捷運南港展覽館站(5號出口),南港區,121.61669,25.05469,2,16,8,27,15,18,25,17,19,19,12,14,22,4,11,17,2,17
28,五常公園,信義區,121.57467,25.04814,22,24,22,23,23,20,18,13,8,22,14,10,11,6,17,20,29,16
29,金山愛國路口,大安區,121.52655,25.03164,17,20,35,29,26,18,22,20,18,15,14,4,4,4,21,21,23,20
30,基隆長興路口,大安區,121.544352,25.017054,57,55,51,29,41,27,16,23,28,46,66,11,5,11,24,17,50,55
31,辛亥新生路口,大安區,121.53456,25.022413,10,7,28,16,16,13,4,4,5,19,8,9,8,7,2,15,19,19
32,捷運六張犁站,大安區,121.553161,25.023884,29,20,23,26,20,21,26,18,15,18,15,11,12,2,3,9,18,23
33,中崙高中,松山區,121.56087,25.04878,27,25,19,17,15,22,23,18,17,17,14,11,12,5,18,21,25,22
34,捷運行天宮站(1號出口),中山區,121.532934,25.058369,22,24,21,21,19,17,24,27,23,21,18,20,17,15,16,9,9,11
35,捷運行天宮站(3號出口),中山區,121.533302,25.059978,30,19,19,13,4,22,19,11,17,25,9,11,13,14,9,7,19,4
36,臺大資訊大樓,大安區,121.54153,25.02101,14,23,25,31,20,24,37,64,69,71,47,63,43,32,33,38,29,27
37,捷運東門站(4號出口),大安區,121.528988,25.0337,29,31,37,16,3,23,30,30,27,7,2,4,6,3,7,11,8,5
38,臺灣師範大學(圖書館),大安區,121.52889,25.02665,9,12,5,21,3,1,1,6,4,16,3,6,19,15,5,23,12,15
39,南港世貿公園,南港區,121.61422,25.058,10,11,13,16,13,6,11,12,10,11,11,11,8,6,11,5,4,4
40,玉成公園,南港區,121.5864,25.04287,0,0,0,0,0,0,0,0,0,0,0,0,0,0,0,0,0,0
41,中研公園,南港區,121.613706,25.047425,17,16,8,2,16,17,11,7,15,14,15,6,4,18,12,15,24,25
42,捷運後山埤站(1號出口),信義區,121.58174,25.04431,25,20,14,20,27,27,30,27,26,11,10,4,15,20,13,16,3,2
43,凌雲市場,南港區,121.614154,25.035639,22,20,19,15,11,9,11,10,10,10,11,6,8,11,11,12,13,15
44,捷運南港軟體園區站(2號出口),南港區,121.616187,25.05973,16,15,14,13,12,13,13,11,10,9,16,12,14,24,29,24,24,26
45,捷運公館站(2號出口),大安區,121.534538,25.01476,0,4,6,11,17,10,25,11,9,2,6,22,21,2,23,24,1,3
46,南港國小,南港區,121.611027,25.05646,19,19,20,22,20,19,18,18,14,12,13,12,10,10,17,20,22,22
47,捷運忠孝新生站(3號出口),大安區,121.533862,25.041924,6,18,15,16,5,6,19,23,23,30,21,14,18,13,16,17,11,13
48,南港車站(忠孝東路),南港區,121.608202,25.05247,15,13,9,8,8,8,9,7,11,10,9,4,19,17,8,15,10,6
49,龍門廣場,大安區,121.548252,25.040901,3,7,13,21,30,7,11,4,11,16,19,15,11,8,38,13,9,0
50,民權運動公園,松山區,121.560186,25.062002,25,23,23,21,17,22,20,18,17,11,13,12,16,25,27,32,37,40
51,建國農安街口,中山區,121.536775,25.065031,28,31,29,33,24,15,9,13,12,11,4,5,0,4,14,14,16,24
52,建國長春路口,中山區,121.536925,25.054761,6,6,4,3,0,7,9,13,11,13,13,11,13,17,19,21,19,19
53,八德市場,中山區,121.536609,25.044781,6,6,8,4,7,9,5,5,10,7,4,2,5,11,13,10,16,11
54,臺北市立圖書館(總館),大安區,121.538073,25.028798,7,0,7,14,8,6,3,10,16,19,1,8,2,4,10,21,17,27
55,臺北田徑場,松山區,121.549408,25.049505,14,13,23,19,18,22,22,39,34,29,12,9,22,11,6,0,2,0
56,仁愛林森路口,中正區,121.522334,25.038954,17,19,25,24,24,23,29,36,24,30,33,7,5,13,23,15,26,26
57,新生和平路口,大安區,121.53519,25.026217,19,26,27,41,41,36,36,36,21,11,14,15,9,4,0,14,23,24
58,捷運善導寺站(1號出口),中正區,121.5222,25.045267,26,31,36,41,32,32,42,33,40,37,32,32,34,32,26,30,31,28
59,林森公園,中山區,121.525805,25.052227,16,11,12,2,4,8,10,9,14,12,3,13,12,18,25,26,27,21
60,中山行政中心,中山區,121.533487,25.064317,27,24,16,14,18,17,11,16,8,12,14,9,16,16,12,16,20,19
61,台灣科技大學,大安區,121.539723,25.0131,17,15,26,19,7,5,24,36,41,44,39,3,11,4,12,29,24,25
62,南昌公園,中正區,121.520258,25.026827,19,25,19,25,22,19,19,11,13,10,19,7,18,12,3,23,10,3
63,仁愛醫院,大安區,121.545632,25.037569,7,9,17,14,2,22,18,21,17,15,12,10,16,19,0,5,6,8
64,國家圖書館,中正區,121.517029,25.037773,6,6,20,26,30,24,26,30,38,27,14,1,22,20,21,18,15,13
65,青年公園3號出口,萬華區,121.502708,25.022725,14,33,31,12,15,17,18,16,22,19,9,6,10,3,16,16,30,25
66,師範大學公館校區,文山區,121.537188,25.007528,30,29,19,18,13,23,21,24,18,14,14,6,7,6,11,21,14,21
67,捷運臺大醫院(4號出口),中正區,121.516428,25.042973,23,29,21,26,35,7,5,19,18,22,27,16,9,23,26,35,4,3
68,國興青年路口,萬華區,121.506536,25.025865,31,23,15,14,5,12,16,17,25,21,11,6,14,14,5,14,20,28
69,興豐公園,文山區,121.547778,24.999837,21,20,16,18,15,30,25,11,10,13,14,10,14,11,16,5,9,8
70,捷運台北101/世貿站,信義區,121.561645,25.032752,24,25,29,23,27,27,16,14,14,13,40,17,23,29,12,13,26,2
71,捷運信義安和站(4號出口),大安區,121.554204,25.032985,17,18,22,28,19,21,4,10,13,22,4,27,3,23,7,14,13,18
72,新生長安路口,中山區,121.529346,25.048611,37,33,35,28,26,22,19,15,16,12,6,8,7,7,8,8,11,13
73,酒泉延平路口,大同區,121.510195,25.072228,14,15,9,10,11,13,13,14,15,12,12,12,14,16,21,25,18,17
74,信義連雲街口,中正區,121.530547,25.033817,29,27,23,26,15,12,15,15,22,12,6,9,15,2,9,21,14,18
75,基隆光復路口,信義區,121.557635,25.0300508,23,22,16,13,10,7,9,5,2,7,22,9,5,10,18,13,21,13
76,新生長春路口,中山區,121.527522,25.056387,23,22,19,21,13,10,14,19,17,11,7,9,11,8,12,21,31,20
77,民生活動中心,松山區,121.56297,25.059147,22,16,21,18,24,21,18,21,18,27,16,4,12,10,5,9,9,16
78,捷運圓山站(2號出口),大同區,121.519287,25.071824,32,34,44,40,40,30,38,26,36,18,2,37,20,13,21,12,18,11
79,捷運民權西路站(3號出口),大同區,121.520205,25.061285,11,12,15,17,9,23,21,26,23,15,11,8,3,4,2,3,7,24
80,華江高中,萬華區,121.495869,25.02751,17,19,17,18,17,19,16,15,15,14,10,11,9,15,14,21,12,18
81,捷運台電大樓站(2號出口),大安區,121.528552,25.020547,24,32,23,18,14,4,5,2,1,5,4,8,16,17,13,18,14,16
82,捷運西門站(3號出口),中正區,121.508693,25.041778,42,35,33,9,6,15,23,32,31,21,27,36,43,28,26,8,8,4
83,捷運大安森林公園站,大安區,121.535161,25.033156,53,33,52,41,34,38,33,48,50,45,58,28,26,18,37,26,11,3
84,復華花園新城,萬華區,121.502899,25.029705,31,30,23,28,31,28,25,31,16,19,10,6,6,2,4,6,10,11
85,信義敦化路口,大安區,121.54911,25.033362,9,21,31,20,19,26,30,19,11,25,24,21,17,11,36,25,34,41
86,民權復興路口,松山區,121.545138,25.062344,20,18,14,7,12,13,14,15,12,9,18,16,14,15,15,22,24,28
87,捷運大安站,大安區,121.543057,25.033078,3,5,13,14,4,2,2,16,19,15,1,1,6,17,3,9,14,4
88,捷運象山站,信義區,121.57087,25.032922,16,14,36,44,48,56,51,48,52,43,41,42,47,37,32,24,7,19
89,和平重慶路口,中正區,121.516385,25.027323,34,24,12,35,28,21,31,29,28,32,33,16,8,19,18,11,27,39
90,老松國小,萬華區,121.501708,25.037783,31,31,32,27,32,32,33,25,24,20,22,33,20,20,21,32,28,26
91,市立美術館,中山區,121.523268,25.070629,21,22,25,28,27,23,31,35,19,21,13,13,9,20,23,23,19,17
92,開封西寧路口,萬華區,121.507169,25.046618,19,22,12,14,15,9,10,4,7,7,1,3,2,7,9,5,4,2
93,吳興公車總站,信義區,121.569836,25.023877,38,27,27,50,35,31,28,22,18,22,17,3,22,16,19,37,27,18
94,捷運景美站,文山區,121.541059,24.993254,15,27,27,11,18,14,21,30,38,36,19,13,33,38,2,6,22,18
95,東園國小,萬華區,121.497679,25.023393,21,21,20,14,15,21,15,16,18,12,9,4,5,7,13,20,24,14
96,三民公園,松山區,121.566558,25.061567,16,16,16,12,10,11,15,13,11,11,9,8,9,16,20,24,16,17
97,捷運劍潭站(2號出口),士林區,121.524721,25.082825,20,14,19,27,15,30,20,27,16,12,12,19,19,18,41,20,0,17
98,羅斯福景隆街口,文山區,121.540197,24.999378,16,16,15,15,16,21,20,21,25,23,23,14,16,14,8,19,19,25
99,捷運雙連站(2號出口),大同區,121.520711,25.057866,23,31,21,15,12,21,28,27,32,8,14,12,3,12,9,6,11,20
100,金山市民路口,中正區,121.530697,25.045753,10,10,14,13,16,12,13,13,17,25,28,15,10,5,0,1,5,3
101,華山文創園區,中正區,121.528487,25.043668,9,9,11,17,21,19,20,23,26,31,41,31,21,13,8,4,9,10
102,臺北市客家文化主題公園,中正區,121.525322,25.02043,18,18,18,15,12,13,7,8,7,4,2,1,10,8,17,19,28,14
103,萬華車站,萬華區,121.503028,25.033639,19,19,21,19,19,31,34,33,36,30,28,25,28,34,35,28,29,31
104,台北花木批發市場,文山區,121.54074,25.004023,23,15,31,33,29,23,28,27,21,14,7,2,6,12,8,18,8,11
105,峨嵋停車場,萬華區,121.505409,25.044412,10,11,12,18,22,27,30,29,34,33,29,19,18,20,20,15,5,4
106,西園艋舺路口,萬華區,121.497674,25.032932,31,29,21,21,22,20,20,21,12,20,10,11,14,11,13,21,20,8
107,捷運小南門站(1號出口),中正區,121.509422,25.036402,7,11,22,31,31,32,27,32,20,38,39,36,34,27,30,29,22,21
108,臺北孔廟,大同區,121.515843,25.073306,19,14,20,20,17,17,10,12,6,16,11,17,5,10,14,8,12,13
109,林安泰古厝,中山區,121.530805,25.071606,13,14,19,26,35,17,15,15,14,6,0,1,3,7,8,3,9,11
110,文湖國小,內湖區,121.560888,25.086376,29,32,23,16,27,26,19,3,1,5,6,11,7,7,28,18,32,39
111,捷運忠孝復興站(2號出口),大安區,121.543497,25.040184,27,28,18,18,22,29,27,28,27,29,33,38,29,18,5,0,16,9
112,捷運新北投站,北投區,121.503124,25.137456,19,18,18,21,16,13,7,6,2,2,4,5,9,5,8,17,16,11
113,仁愛逸仙路口,信義區,121.561178,25.037724,22,21,12,11,8,4,3,5,9,9,20,29,23,24,18,19,15,13
114,蘭雅公園,士林區,121.530386,25.109908,5,12,13,2,19,6,7,21,16,15,19,12,16,12,10,0,10,12
115,臺北轉運站,中正區,121.520526,25.048222,36,47,31,21,20,18,33,38,39,42,51,50,53,43,41,49,24,27
116,福林公園,士林區,121.530215,25.096122,27,28,36,37,24,25,24,26,23,23,19,9,5,12,13,17,13,17
117,捷運北投站,北投區,121.498618,25.132581,14,16,11,19,30,16,26,28,29,15,6,22,17,43,25,0,0,9
118,大業大同街口,北投區,121.499152,25.136929,30,28,32,18,9,22,19,17,15,16,16,18,24,23,5,7,7,11
119,捷運劍南路站(2號出口),中山區,121.555116,25.08418,11,11,20,24,31,41,39,34,40,27,25,16,29,37,15,20,23,4
120,捷運龍山寺站(1號出口),萬華區,121.50026,25.035479,28,33,20,24,38,21,23,16,30,31,24,4,2,4,2,16,3,1
121,龍江南京路口,中山區,121.540568,25.05298,26,25,41,37,32,34,31,34,52,47,47,43,41,36,38,40,38,42
122,捷運港墘站(2號出口),內湖區,121.57584,25.079666,15,23,27,24,23,17,18,13,21,21,20,5,22,29,26,25,23,26
123,天母運動公園,士林區,121.534136,25.116325,9,12,15,23,25,24,32,22,13,13,23,25,27,16,3,10,10,13
124,振華公園,北投區,121.518163,25.115863,26,27,26,25,18,18,18,18,17,20,20,22,26,19,19,20,21,23
125,華西公園,萬華區,121.498495,25.038609,18,16,16,12,6,11,7,9,7,9,6,11,19,8,18,15,17,17
126,敦化基隆路口,大安區,121.548336,25.022073,20,22,16,18,17,16,13,16,15,13,13,12,10,8,16,14,16,17
127,東湖國中,內湖區,121.619521,25.073277,25,24,20,21,21,25,15,18,18,21,16,7,7,8,9,11,16,22
128,成功國宅,大安區,121.546726,25.026808,32,32,28,31,27,25,24,20,17,13,17,7,14,13,5,12,17,28
129,捷運文德站(2號出口),內湖區,121.58456,25.078424,22,21,19,14,12,14,11,6,6,5,9,13,16,17,13,14,8,4
130,羅斯福寧波東街口,中正區,121.519411,25.031445,11,7,2,8,7,8,9,12,11,3,18,15,25,8,14,15,2,1
131,洲子二號公園,內湖區,121.568688,25.079322,9,9,10,12,15,18,21,22,24,21,21,18,21,12,12,10,6,2
132,羅斯福新生南路口,大安區,121.5331757,25.01603085,52,50,52,58,37,75,79,67,77,52,69,61,55,67,25,40,11,25
133,蘭興公園,士林區,121.525888,25.111839,25,21,17,7,26,27,18,14,10,21,25,16,29,27,12,8,16,22
134,捷運芝山站(2號出口),士林區,121.522629,25.10336,13,10,29,49,33,39,37,50,57,26,16,4,21,45,51,4,3,10
135,捷運石牌站(2號出口),北投區,121.515677,25.114513,6,7,13,6,14,23,33,35,27,24,19,22,15,25,15,10,15,11
136,國立臺北護理健康大學,北投區,121.517512,25.118049,10,16,6,5,8,17,14,20,18,20,15,2,9,7,9,7,5,10
137,國防大學,北投區,121.493066,25.137976,23,20,15,24,20,16,17,17,13,17,18,19,24,11,22,38,37,29
138,捷運永春站(2號出口),信義區,121.575372,25.040558,8,10,20,11,11,20,24,5,10,7,1,2,2,10,12,8,4,7
139,永樂市場,大同區,121.510549,25.054501,15,14,1,5,18,8,0,18,32,37,17,14,10,17,16,11,20,17
140,捷運大橋頭站(2號出口),大同區,121.512909,25.063404,9,19,7,13,23,12,11,36,41,32,25,19,25,21,6,22,23,16
141,文山行政中心,文山區,121.569984,24.989902,8,13,15,19,18,17,18,19,18,18,15,12,6,1,7,8,8,8
142,捷運木柵站,文山區,121.574214,24.997747,13,11,12,13,10,23,24,23,26,21,18,22,24,22,19,25,19,12
143,捷運動物園站(2號出口),文山區,121.578752,24.997659,15,15,16,21,20,21,23,25,24,39,33,30,24,23,22,25,22,13
144,國立政治大學,文山區,121.576536,24.988363,39,41,41,38,44,40,43,41,45,28,20,20,13,16,9,4,12,27
145,樹德公園,大同區,121.516149,25.066688,34,34,28,22,24,29,32,20,26,27,18,3,4,11,6,18,23,29
146,捷運士林站(2號出口),士林區,121.526556,25.092546,21,24,13,10,13,20,20,6,2,4,1,13,16,41,18,24,19,8
147,士林運動中心,士林區,121.521814,25.089175,21,19,24,21,13,15,6,15,14,14,15,18,6,20,10,12,12,12
148,捷運明德站,北投區,121.518316,25.110331,47,21,33,30,33,39,44,45,43,46,39,41,45,48,53,53,58,60
149,北投運動中心,北投區,121.509621,25.116665,36,32,25,16,26,27,22,23,21,16,16,2,10,12,28,27,37,40
150,松德公園,信義區,121.57343,25.036568,22,21,8,16,16,13,9,21,22,13,16,18,12,8,15,31,24,26
151,考試院,文山區,121.549827,24.987507,14,17,16,18,20,22,20,19,16,17,13,10,3,9,8,15,19,20
152,百齡國小,士林區,121.519175,25.08521,30,30,20,20,26,15,8,23,36,27,25,8,18,1,8,18,24,18
153,蔣渭水紀念公園,大同區,121.516299,25.059885,21,20,15,11,10,12,11,12,9,11,12,12,2,5,6,11,9,15
154,中正基河路口,士林區,121.519867,25.093396,24,24,23,22,16,20,19,18,22,21,20,17,11,7,5,8,15,14
155,瑞光港墘路口,內湖區,121.57505,25.076193,19,19,17,22,22,24,24,18,17,17,20,21,20,15,16,15,17,17
156,東湖國小,內湖區,121.61538,25.06853,6,10,11,8,13,9,8,7,8,6,9,10,14,9,7,11,25,26
157,麗山國小,內湖區,121.571467,25.082703,14,14,8,8,5,24,22,21,19,15,12,10,19,18,18,25,35,39
158,捷運東湖站,內湖區,121.61355,25.067026,22,25,32,41,40,40,46,32,29,30,23,11,8,9,10,23,31,26
159,捷運西湖站(1號出口),內湖區,121.566695,25.082866,13,14,18,23,22,24,16,18,18,14,7,21,12,19,6,20,16,11
161,大豐公園,北投區,121.503768,25.131143,32,27,27,24,22,23,24,25,24,25,26,26,20,21,25,35,41,50
162,捷運中山國小站(4號出口),中山區,121.52772,25.062924,56,31,44,43,33,30,32,33,31,23,18,1,2,1,16,22,17,25
163,捷運麟光站2號出口,大安區,121.559279,25.018097,63,62,52,33,43,41,37,35,35,38,41,17,16,7,17,32,36,38
164,捷運奇岩站,北投區,121.500801,25.126286,5,7,8,15,22,34,37,46,47,41,40,26,20,18,22,14,2,7
165,捷運唭哩岸站(2號出口),北投區,121.505693,25.120788,27,25,28,35,35,38,36,31,31,28,19,7,14,33,32,37,22,11
166,臺北市立景美女中,文山區,121.556177,24.980602,17,19,33,23,17,17,13,16,20,20,15,11,18,10,7,12,16,14
167,臺北市立天文館,士林區,121.518046,25.095714,10,10,19,24,27,28,26,32,35,44,26,15,5,4,6,7,9,9
168,河堤國小,中正區,121.522855,25.02288,32,31,30,36,33,32,30,28,28,16,8,4,3,1,5,7,8,11
169,植物園,中正區,121.509813,25.030015,21,19,20,19,17,19,21,19,17,17,16,25,19,25,27,32,44,31
170,新東公園,松山區,121.568883,25.059245,38,41,39,36,35,31,28,30,27,28,20,10,20,30,26,25,37,40
171,文山運動中心,文山區,121.559651,24.996842,17,20,16,15,14,11,13,16,15,11,7,7,3,1,0,5,10,9
172,捷運南京三民站(1號出口),松山區,121.562891,25.051562,11,8,10,17,12,19,9,22,13,10,9,2,11,22,0,1,10,2
173,捷運松江南京站(7號出口),中山區,121.533211,25.052181,40,38,35,26,30,28,20,27,51,47,51,46,44,40,36,47,43,34
174,捷運小巨蛋站(5號出口),松山區,121.553057,25.051702,23,22,28,22,29,20,19,28,19,22,28,18,6,14,22,2,16,10
175,捷運南京復興站(5號出口),松山區,121.544847,25.051618,12,15,38,43,30,24,28,34,20,20,0,20,15,39,17,3,2,0
176,興安華城,中山區,121.542318,25.055997,68,62,70,62,65,58,51,47,55,52,53,49,50,52,60,67,68,75
177,葫蘆國小,士林區,121.507495,25.082538,26,28,29,25,28,31,28,27,30,30,34,19,15,11,6,9,12,16
178,延平國宅,士林區,121.510306,25.078908,16,15,11,12,9,9,10,9,10,11,10,7,6,6,9,10,14,17
179,南港公園,南港區,121.59073,25.041355,28,28,39,33,28,27,24,20,19,19,4,5,3,11,2,8,16,21
180,福華商場,內湖區,121.592654,25.06877,21,22,23,25,25,27,30,29,15,26,25,19,20,24,29,27,28,29
181,建國和平路口,大安區,121.537383,25.02585,3,2,29,22,13,11,14,15,18,28,4,2,9,12,7,12,12,17
182,捷運古亭站(2號出口),中正區,121.523537,25.0253,6,6,8,8,15,25,29,19,15,11,6,19,24,20,4,8,6,6
183,圓環站,大同區,121.514179,25.05379,14,13,7,11,8,5,3,1,9,10,14,13,13,10,11,19,19,11
184,劍潭社區,中山區,121.537892,25.084759,19,18,14,13,12,13,11,11,11,8,4,8,9,11,19,18,23,23
185,?公公園,大安區,121.54605,25.042342,7,9,8,8,9,12,16,10,2,7,7,7,11,9,1,0,0,7
186,臺北市立大學,中正區,121.514218,25.035414,15,19,16,17,32,37,29,28,28,28,23,18,23,13,16,15,17,8
187,仁愛延吉街口,大安區,121.555769,25.037465,14,15,9,20,23,17,14,14,5,7,16,19,20,24,14,14,12,14
188,社子國小,士林區,121.50189,25.090293,11,10,23,23,20,21,25,25,26,28,27,17,15,24,27,29,34,36
189,金瑞公園(金龍路),內湖區,121.58781,25.087987,18,22,35,25,24,19,16,12,16,14,21,23,23,17,9,20,29,20
190,捷運大直站(3號出口),中山區,121.546683,25.079278,19,25,31,21,21,23,25,28,30,27,22,14,15,8,26,32,30,30
191,捷運大湖公園站(2號出口),內湖區,121.60206,25.083873,16,15,15,18,19,19,16,24,24,28,24,17,18,11,9,7,0,17
192,捷運葫洲站(1號出口),內湖區,121.607955,25.072485,5,4,5,11,11,14,15,21,21,14,14,9,6,9,16,11,17,16
193,舊莊區民活動中心,南港區,121.61935,25.041277,19,18,20,21,26,22,12,18,17,16,18,2,5,6,11,18,25,26
194,市民林森路口,中山區,121.524388,25.047958,14,12,12,14,21,22,19,11,11,21,21,17,18,25,29,31,34,38
195,信義杭州路口(中華電信總公司),中正區,121.523987,25.035851,29,32,26,25,13,12,9,11,20,10,3,7,3,8,14,22,27,31
196,新湖國小,內湖區,121.589233,25.068744,18,18,20,18,12,10,8,8,6,8,7,6,6,4,7,6,9,11
197,饒河夜市(八德路側),松山區,121.571885,25.049845,13,13,11,12,10,7,1,3,1,7,10,15,15,17,18,16,17,14
201,東陽公園,南港區,121.597924,25.057164,27,25,20,21,18,18,16,15,14,16,8,3,2,6,17,26,38,26
202,捷運關渡站,北投區,121.467336,25.124646,20,29,26,26,27,32,35,33,36,15,28,20,7,22,34,34,25,22
203,古亭國中,萬華區,121.51057,25.024487,37,30,23,18,13,10,6,10,11,6,7,3,5,13,20,9,20,25
204,臺北市立大學(天母校區),士林區,121.53742,25.113625,28,30,28,29,27,22,22,26,22,22,22,12,14,8,14,24,20,19
205,木柵光輝路口,文山區,121.55561,24.988241,11,11,9,10,24,24,11,9,11,9,13,15,17,16,15,15,14,15
206,捷運辛亥站,文山區,121.55716,25.005386,18,21,24,21,20,14,11,14,14,16,14,14,11,9,12,10,12,14
207,福安國中,士林區,121.487477,25.103242,15,14,12,12,16,16,16,16,14,16,16,13,12,17,17,17,17,17
208,龍山國小,萬華區,121.495342,25.035555,26,22,18,18,21,19,19,10,5,2,4,7,10,10,7,17,20,23
209,捷運復興崗站,北投區,121.486071,25.137837,22,22,19,21,24,25,22,23,20,29,26,26,26,22,21,21,14,9
210,樂群二敬業四路口,中山區,121.558135,25.079766,41,47,36,39,36,24,25,25,28,19,20,16,16,23,26,29,28,42
211,星雲金湖街口,內湖區,121.597339,25.080915,23,22,21,20,18,20,21,18,18,15,14,16,16,13,12,12,13,15
212,北安大直街口,中山區,121.549452,25.084223,24,23,16,16,17,15,16,15,13,20,24,19,22,16,33,34,35,34
213,蘭雅國小,士林區,121.523107,25.107782,21,20,21,20,13,14,14,13,18,20,17,14,15,20,18,16,19,14
214,基河一期國宅,內湖區,121.578645,25.055935,23,22,25,24,21,20,23,22,21,20,17,15,20,7,9,8,9,13
215,捷運北門站(3號出口),大同區,121.510367,25.04993,36,36,27,32,41,35,35,28,12,38,23,15,19,12,15,11,7,18
216,培英公園,中山區,121.544601,25.082553,20,25,23,24,26,22,24,27,27,27,19,12,7,4,5,8,6,12
217,臺北花市,內湖區,121.574267,25.062645,5,8,8,10,17,27,31,21,17,15,19,24,19,14,16,5,0,11
218,松山高中,信義區,121.564108,25.043299,0,0,0,0,0,0,0,0,0,0,0,0,0,0,0,0,0,0
219,大理高中,萬華區,121.49074,25.031147,9,13,11,15,8,7,2,12,8,15,14,7,4,12,19,26,11,15
220,大稻埕公園,大同區,121.510512,25.059162,8,2,3,1,8,16,12,8,10,16,0,4,13,0,0,5,14,16
221,泰和公園,信義區,121.57107,25.019276,26,20,7,19,14,12,10,2,10,4,1,6,9,6,13,18,36,12
222,撫順公園,中山區,121.522065,25.064108,18,18,17,12,12,10,18,14,11,10,4,2,4,2,10,4,21,27
223,清江國小,北投區,121.507267,25.1274,32,30,28,21,15,10,5,12,9,8,0,5,14,29,1,10,27,32
224,社正公園,士林區,121.510535,25.088243,33,35,30,31,32,31,30,31,32,17,21,27,29,11,14,19,24,29
225,臥龍樂業街口,大安區,121.554839,25.0186,32,31,30,26,25,25,26,26,23,29,14,6,10,18,6,13,26,23
226,向陽南港路口,南港區,121.594228,25.054365,18,17,17,15,14,17,17,15,14,13,10,13,15,14,6,4,8,7
227,麗山高中,內湖區,121.57668,25.084244,27,28,28,25,22,20,20,21,21,13,15,18,14,17,18,17,22,24
228,捷運萬芳社區站,文山區,121.567474,24.998956,17,16,17,15,14,12,11,11,11,9,4,1,18,9,13,14,15,16
229,市民太原路口,大同區,121.514611,25.049394,14,10,13,20,3,14,25,21,20,9,23,14,19,34,18,4,3,1
230,湖光國宅,內湖區,121.580811,25.075366,25,25,22,21,20,17,16,10,10,12,10,8,4,4,13,16,26,26
231,內政部營建署,松山區,121.545022,25.047805,19,16,16,14,11,16,23,13,20,11,15,12,21,20,24,17,22,22
232,中山天母路口,士林區,121.529738,25.118843,7,8,3,5,2,1,1,1,6,2,0,1,5,10,1,4,15,17
233,捷運忠義站,北投區,121.474155,25.131411,11,11,11,11,10,12,13,10,8,8,5,6,5,6,8,8,8,9
234,永欣綠地,北投區,121.526071,25.124162,24,23,23,20,18,15,15,12,26,23,19,10,13,11,8,20,24,24
235,市民東興路口,松山區,121.565928,25.04846,9,5,7,10,12,9,6,5,4,8,2,14,8,9,12,16,20,18
236,關渡自然公園,北投區,121.469138,25.119292,25,16,16,23,20,15,14,21,25,20,11,1,8,9,9,5,8,15
237,文山第二行政中心,文山區,121.551418,25.001149,22,20,25,25,25,29,22,22,19,15,14,9,11,7,14,9,13,16
238,瑞湖陽光街口,內湖區,121.575965,25.073119,19,19,23,28,18,16,19,23,21,21,15,15,15,13,12,9,9,8
239,新明路321巷口,內湖區,121.584098,25.056687,26,25,21,19,17,16,15,12,14,11,4,2,5,10,9,15,16,15
240,南京建國路口,中山區,121.536802,25.052141,33,32,35,37,41,43,42,35,36,31,34,30,29,20,19,24,22,14
241,林口公園,信義區,121.579146,25.038943,28,27,24,21,25,21,21,28,21,19,18,21,16,19,15,18,29,29
242,關渡宮,北投區,121.463161,25.117472,22,25,24,17,27,31,28,31,10,14,15,0,6,18,29,13,16,19
243,社子公園,士林區,121.506219,25.090202,11,11,11,6,4,3,3,3,6,7,9,10,10,13,9,9,12,12
244,復興市民路口,中山區,121.543736,25.045908,17,18,17,18,30,40,41,41,42,37,45,16,7,7,7,14,1,3
245,捷運中山國中站,中山區,121.544028,25.060632,22,19,2,18,30,14,21,23,16,21,12,15,19,6,18,10,9,16
246,國立故宮博物院,士林區,121.548086,25.098743,10,10,10,11,11,11,11,11,12,9,9,8,8,8,8,6,7,7
247,木柵公園,文山區,121.560627,24.987144,14,12,11,15,15,19,20,18,19,21,19,16,15,14,10,17,18,21
248,喬治工商,大安區,121.555566,25.027123,8,8,0,17,14,8,6,14,11,6,7,1,2,4,12,19,14,14
249,中華桂林路口,萬華區,121.506624,25.037706,23,18,15,18,20,23,18,10,10,0,8,8,12,4,14,11,16,14
250,忠孝東路三段217巷口,大安區,121.539873,25.04184,27,20,15,16,17,9,14,15,6,4,5,4,11,10,17,16,18,16
251,華齡公園,士林區,121.520692,25.083023,25,25,21,15,18,15,18,4,27,24,23,5,8,14,18,21,22,18
252,大安運動中心,大安區,121.545608,25.020544,19,20,15,17,29,16,10,4,11,26,23,22,23,24,19,26,13,13
253,芝山抽水站,士林區,121.52799,25.101423,13,15,10,6,3,16,16,11,7,6,1,0,1,7,11,10,16,19
254,立功立德路口,北投區,121.471482,25.125377,10,18,18,17,15,15,16,19,20,22,23,21,8,9,15,18,21,21
255,光復南路22巷口,松山區,121.557674,25.046914,15,9,21,18,20,17,20,16,7,8,13,6,14,9,14,24,23,22
256,中山中正路口,士林區,121.527526,25.096507,3,4,2,6,7,9,13,12,11,9,5,6,3,8,7,4,7,10
257,錦德公園,萬華區,121.492637,25.023316,25,22,20,16,13,10,7,5,5,7,5,5,5,9,8,22,32,34
258,聯合醫院中興院區,大同區,121.507979,25.052096,23,22,23,22,22,17,16,17,11,8,6,8,10,10,12,21,24,27
259,南京遼寧街口,中山區,121.542168,25.051761,16,17,13,12,7,18,23,19,22,15,15,21,16,18,17,15,12,15
260,民權瑞光路口,內湖區,121.583991,25.068616,9,8,8,22,20,21,22,23,23,24,21,20,17,15,16,22,22,23
261,健康新城,松山區,121.560928,25.054095,34,33,32,33,35,31,26,27,29,24,19,13,12,23,29,19,29,34
262,永安藝文館-表演36房,文山區,121.569064,24.984144,20,19,18,17,15,16,17,16,14,15,17,12,4,5,5,14,16,16
263,至善臨溪路口,士林區,121.542153,25.097103,12,12,14,14,11,9,3,4,5,7,3,2,2,2,11,14,17,19
264,秀山區民活動中心,北投區,121.493009,25.145936,13,12,11,5,2,12,12,17,17,16,10,6,5,3,5,6,7,6
265,中央北路四段30巷口,北投區,121.478,25.135394,8,8,11,12,6,2,1,6,6,7,11,5,3,2,1,1,1,4
266,洲子一號公園,內湖區,121.564806,25.080258,3,4,8,7,8,12,12,16,17,17,17,11,12,14,15,15,16,15
267,八德中坡路口,南港區,121.580194,25.05062,24,29,29,30,27,29,32,32,18,20,26,26,30,35,20,21,16,17
268,南港高工,南港區,121.607055,25.056655,20,17,21,21,22,22,21,7,11,9,5,6,0,1,3,9,9,7
269,三軍總醫院,內湖區,121.590304,25.070723,14,17,17,16,14,17,12,12,13,15,10,10,9,13,13,18,21,21
270,雨農國小,士林區,121.529217,25.105429,29,25,18,19,19,14,8,2,16,13,7,20,13,11,17,17,23,20
271,伊通長安路口,中山區,121.534693,25.048334,5,4,4,14,21,19,19,15,10,11,9,8,0,5,5,7,6,7
272,忠順區民活動中心,文山區,121.563125,24.984707,9,10,13,12,8,8,5,4,2,7,3,3,4,16,14,21,25,18
273,芝山國小,士林區,121.535954,25.110437,30,29,22,8,22,20,16,10,13,7,9,11,15,9,17,31,22,13
274,扶輪親恩公園,內湖區,121.579833,25.066997,13,13,14,13,11,8,8,8,13,11,12,9,10,11,11,12,9,11
275,西本願寺廣場,萬華區,121.507688,25.040988,40,34,36,23,21,22,26,27,35,39,32,33,32,19,42,29,25,18
276,三興公園,信義區,121.55932,25.028679,30,26,20,10,9,3,4,1,1,15,17,9,7,16,3,12,23,28
277,中山堂,中正區,121.51025,25.044091,7,7,7,2,9,7,9,13,7,6,6,2,9,7,9,11,12,11
278,明美公園,內湖區,121.586065,25.062557,11,15,14,15,14,15,14,15,16,18,16,12,11,14,15,13,11,12
279,南港車站(興華路),南港區,121.606331,25.053432,11,15,19,18,18,22,33,21,23,11,23,16,18,19,9,16,4,1
280,士林新天地,士林區,121.51732,25.089034,16,7,8,3,11,7,13,13,15,18,14,20,11,20,12,15,16,11
281,松江公園,中山區,121.532725,25.050245,15,12,9,8,5,7,6,5,5,12,9,5,9,3,2,4,10,11
282,富台公園,信義區,121.571999,25.041935,13,13,13,10,11,17,20,14,18,16,13,11,6,10,14,20,21,21
283,中央北路四段540巷口,北投區,121.4677,25.127959,10,10,9,9,5,4,0,8,6,7,4,3,8,10,12,13,13,13
284,華聲公園,士林區,121.522096,25.096166,27,28,27,28,22,25,29,32,32,27,25,23,28,34,19,14,18,20
285,螢橋國小,中正區,121.51377,25.025966,21,19,17,24,19,15,2,27,23,22,15,22,7,16,4,13,28,23
286,德明財經科技大學,內湖區,121.565713,25.086372,20,15,12,7,13,11,10,7,5,4,0,13,20,20,23,29,20,22
287,第二果菜批發市場,中山區,121.538264,25.067558,24,25,22,21,15,18,19,10,7,7,10,16,18,2,6,9,17,21
288,濟南紹興路口,中正區,121.524591,25.041928,33,32,30,29,27,24,26,24,20,23,18,18,20,24,26,31,40,39
289,牯嶺公園,中正區,121.518835,25.023377,21,28,30,21,13,12,2,4,4,10,7,8,8,21,3,9,29,10
290,新生公園,中山區,121.530188,25.068387,12,12,12,5,12,12,11,1,1,3,7,1,3,6,7,8,12,13
291,捷運松山站(3號出口),松山區,121.577459,25.049616,40,35,33,31,32,24,38,40,37,32,28,34,30,26,20,18,9,14
292,合心廣場,南港區,121.582848,25.046361,27,24,20,28,28,27,30,20,29,28,23,27,23,20,19,21,30,29
293,自來水園區,中正區,121.530037,25.013284,18,22,17,15,19,31,31,30,29,29,11,6,24,26,17,19,6,2
294,朱崙商場,中山區,121.540431,25.047617,10,8,17,25,12,14,14,12,5,6,2,15,10,6,9,16,18,21
295,敦親公園,大安區,121.541083,25.023473,24,20,4,17,16,20,13,12,4,4,10,13,16,2,3,3,16,18
296,萬和二號公園,文山區,121.536446,25.001545,23,18,19,14,11,21,26,16,14,14,13,4,5,15,9,13,15,19
297,長沙公園,萬華區,121.499922,25.041702,17,18,12,9,13,4,7,5,6,4,6,6,6,9,9,15,15,17
298,太原五原路口,大同區,121.516976,25.056458,13,10,12,10,7,4,2,2,4,2,6,0,12,15,1,13,20,25
299,萬華國中,萬華區,121.499358,25.029264,15,18,18,20,15,17,22,22,19,16,16,24,23,17,16,13,13,15
300,信義基隆路口,信義區,121.558731,25.033209,8,8,9,12,6,18,18,10,4,3,6,10,11,4,16,17,15,9
301,林森長春路口,中山區,121.525383,25.055062,5,4,2,2,4,11,11,9,18,17,13,3,11,8,1,15,22,18
302,敦北公園,松山區,121.550711,25.060746,25,25,23,22,19,17,14,14,15,8,6,9,7,3,3,15,12,12
303,安泰街83巷,內湖區,121.617085,25.076691,17,16,15,12,12,5,7,7,6,2,4,4,6,7,10,16,19,21
304,金華公園,大安區,121.531235,25.029902,28,29,19,22,31,19,20,14,15,28,18,15,0,1,4,8,20,21
305,碧山公園,內湖區,121.592253,25.087413,21,26,32,24,15,10,8,10,9,7,6,4,7,14,16,7,17,24
306,捷運古亭站(6號出口),大安區,121.52198,25.027781,23,17,7,7,9,18,15,9,5,5,0,3,1,8,20,28,25,37
307,仁愛安和路口,大安區,121.552076,25.03757,11,12,16,14,19,17,17,12,18,14,10,3,6,11,11,1,3,7
308,西松高中,松山區,121.567127,25.055672,21,22,16,14,15,18,9,8,4,16,11,3,10,17,30,18,23,20
309,三軍總醫院(松山分院),松山區,121.556098,25.05447,28,21,18,14,13,5,10,5,7,4,7,8,13,6,5,9,19,22
310,國立臺北大學(臺北校區),中山區,121.542732,25.057923,18,18,28,19,8,12,5,4,6,5,5,1,3,1,6,6,11,18
311,捷運忠孝新生站(2號出口),中正區,121.532229,25.042392,6,3,1,9,7,9,6,10,14,21,2,4,4,11,5,4,4,10
312,捷運信義安和站(1號出口),大安區,121.552787,25.033323,24,21,20,17,14,15,22,22,23,20,9,19,27,22,21,21,21,20
313,光華商場,中正區,121.532738,25.04515,12,8,3,3,20,27,53,58,62,55,43,56,49,50,37,4,7,5
314,敦化長春路口,松山區,121.54872,25.053614,6,9,8,13,18,12,11,17,15,16,1,11,10,16,7,1,3,0
315,捷運萬隆站(1號出口),文山區,121.539037,25.001447,9,7,6,3,9,8,10,7,5,13,14,11,14,13,14,13,15,14
316,民有一號公園,松山區,121.54763,25.060911,18,21,16,16,15,12,9,12,11,12,13,12,12,13,22,18,22,26
317,雙園國中,萬華區,121.491675,25.026823,19,19,20,14,15,12,10,12,8,12,10,2,5,7,12,8,14,16
318,成功金龍路口,內湖區,121.59484,25.084135,5,9,12,10,12,25,11,11,7,15,13,9,18,16,11,7,3,9
319,民族林森路口,中山區,121.525322,25.068507,14,19,15,14,14,15,18,20,20,28,29,2,2,6,8,13,17,23
320,捷運南京三民站(3號出口),松山區,121.564262,25.051287,6,6,1,15,18,17,11,5,13,18,22,5,4,11,4,6,5,0
321,莒光大埔街口,中正區,121.505085,25.031334,14,12,10,9,8,6,6,9,8,9,8,11,12,13,14,15,15,18
322,永盛公園(民生東路一段23巷),中山區,121.52504,25.058835,4,2,16,15,17,18,16,13,13,11,13,19,13,8,11,14,8,14
323,新興公園,中山區,121.524392,25.061568,16,18,21,10,14,13,8,3,0,0,0,0,5,6,12,19,22,11
324,市立圖書館葫蘆堵分館,士林區,121.5108,25.08221,15,11,12,16,17,15,15,14,11,11,11,6,5,7,5,5,5,9
325,南京東路六段368巷,內湖區,121.58707,25.05827,21,20,18,16,18,18,17,18,19,18,6,9,1,7,6,8,9,10
326,基隆路一段101巷口,信義區,121.56709,25.04525,24,18,14,12,10,15,17,17,18,17,14,9,6,7,8,11,15,16
327,重慶南海路口,中正區,121.51464,25.03158,9,11,16,20,16,15,17,6,14,11,8,3,10,14,7,4,7,8
328,一江公園,中山區,121.53146,25.05316,20,19,18,19,18,18,20,15,11,12,7,4,5,4,9,15,24,27
329,樂群二明水路口,中山區,121.55236,25.07983,7,2,7,17,15,18,19,14,15,14,8,7,14,9,5,4,4,7
330,迪化休閒運動公園,大同區,121.5115,25.07491,14,14,13,14,16,18,17,16,14,16,16,17,16,5,10,6,11,14
331,民族玉門街口,中山區,121.51974,25.06859,22,21,20,23,29,24,27,30,17,19,8,6,10,5,12,13,14,12
332,捷運中山站(2號出口),中山區,121.52193,25.05225,14,15,18,28,22,13,25,15,17,24,5,17,9,14,21,25,16,13
333,復盛公園,松山區,121.561182,25.047428,7,8,15,17,20,15,13,18,18,17,16,12,15,16,15,12,17,22
334,敦化南路二段103巷口,大安區,121.549024,25.028973,4,1,5,9,13,12,14,11,18,1,5,2,2,2,16,12,13,11
335,景文中學,文山區,121.567855,24.986301,12,14,13,13,15,15,15,13,12,12,14,17,17,16,16,15,17,18
336,承德路三段8巷口,大同區,121.51815,25.06382,5,7,7,6,6,6,5,10,8,8,3,7,7,5,6,9,6,3
337,彩虹橋,內湖區,121.57592,25.05301,16,16,16,16,15,14,15,13,3,7,8,4,5,4,5,10,8,5
338,成德國中,南港區,121.58794,25.04573,15,14,15,15,15,23,19,18,17,18,13,9,11,16,26,19,21,22
339,重慶國中,大同區,121.51816,25.07581,14,13,9,17,20,23,22,23,23,22,21,17,8,5,6,7,8,8
340,南京光復路口,松山區,121.55716,25.05143,6,11,11,11,13,12,13,15,15,19,15,5,11,7,4,1,4,5
341,捷運芝山站(1號出口),士林區,121.52243,25.10094,8,10,11,10,7,19,21,18,17,21,17,7,6,9,13,14,9,7
342,文林建民路口,北投區,121.51468,25.10779,20,19,18,17,12,7,4,3,0,6,6,6,8,16,16,19,17,18
343,忠孝東路六段185巷口,南港區,121.58755,25.04904,24,21,18,12,13,17,22,21,20,21,18,16,15,7,10,14,16,21
344,捷運忠孝復興站(5號出口),大安區,121.54401,25.04264,21,17,17,20,22,22,23,21,22,19,14,16,15,5,4,0,13,8
345,中正運動中心,中正區,121.51943,25.03806,12,11,21,23,18,18,19,16,8,16,13,10,19,17,3,9,6,8
346,陽明高中,士林區,121.51669,25.09157,7,7,0,17,22,21,25,26,25,23,24,23,25,26,27,27,27,26
347,博愛寶慶路口,中正區,121.51135,25.04134,7,6,13,12,8,10,8,7,8,10,6,5,4,7,9,9,9,9
348,民生立體停車場,松山區,121.55945,25.05794,18,17,11,10,12,10,12,13,8,10,13,14,13,15,6,8,21,10
349,重慶酒泉街口,大同區,121.51364,25.07183,17,20,20,23,13,12,7,8,6,8,7,7,6,6,4,10,13,17
350,復興南路二段128巷口,大安區,121.54336,25.02904,27,23,15,19,15,6,19,18,15,18,7,1,0,6,26,28,22,33
351,中山青島路口,中正區,121.51954,25.04469,9,11,18,25,25,25,28,29,31,33,29,17,14,11,5,2,2,18
352,民權迪化街口,大同區,121.50944,25.06318,12,10,11,12,11,6,1,3,5,6,6,6,9,13,18,7,13,17
353,紀州庵,中正區,121.52049,25.02088,25,19,15,18,21,18,18,23,13,8,1,0,9,10,15,18,23,23
354,建國濟南路口,大安區,121.538084,25.040033,16,17,11,6,7,6,8,11,5,8,9,5,3,8,12,11,13,13
355,福山公園,南港區,121.61759,25.04478,16,15,12,13,12,14,11,14,15,13,8,14,2,7,11,17,16,17
356,臺北市網球中心,內湖區,121.59749,25.0674,16,17,13,12,6,10,8,7,13,12,11,6,7,11,13,11,10,11
357,松友公園,信義區,121.57636,25.03423,9,10,9,12,3,14,14,8,4,3,1,12,8,3,5,22,3,14
358,新明成功路口,內湖區,121.5911,25.06058,14,13,14,15,15,15,15,15,15,14,13,11,11,10,13,11,13,12
359,健安新城,松山區,121.56358,25.05601,30,23,14,19,16,10,11,9,21,18,28,22,4,3,17,21,29,15
360,民權建國路口,中山區,121.53754,25.06252,27,28,22,23,22,21,26,28,20,16,11,2,5,6,12,11,11,13
361,振興醫院,北投區,121.5222,25.1177,16,19,21,24,27,25,21,25,22,16,11,12,15,11,9,8,9,7
362,和平金山路口,大安區,121.52533,25.02672,5,6,15,16,22,18,5,7,14,15,15,13,11,12,17,19,22,22
363,復興南路一段340巷口,大安區,121.5435,25.03617,9,14,14,18,22,20,21,23,25,26,25,25,22,20,19,6,6,9
364,嘉興公園,大安區,121.55219,25.02109,12,12,27,36,17,12,9,12,5,9,5,10,19,3,7,16,25,14
365,陽明大學,北投區,121.51223,25.11912,34,29,24,22,17,15,7,16,12,17,9,9,7,17,13,20,26,26
366,碧湖公園,內湖區,121.58287,25.07988,21,24,22,26,22,23,23,20,22,18,17,16,20,23,19,24,23,24
367,豐年公園,北投區,121.497019,25.13597,19,16,17,15,12,9,7,7,8,10,8,8,4,4,16,18,20,22
368,臺灣戲曲中心,士林區,121.51979,25.10208,20,20,20,17,17,16,16,16,15,15,14,13,11,13,12,9,11,11
369,世新大學,文山區,121.54361,24.98862,20,22,27,26,24,24,24,24,26,28,21,21,26,28,17,21,26,14
370,新和國小,萬華區,121.50242,25.02656,18,18,17,15,9,9,10,10,9,12,9,16,6,4,4,6,6,7
371,南門國中,中正區,121.50834,25.03532,9,7,9,5,10,15,17,18,18,17,12,15,15,16,16,12,13,13
372,重慶民族路口,大同區,121.51359,25.06825,18,14,10,8,14,9,3,1,10,9,5,14,6,10,3,11,16,17
373,中崙福成宮,松山區,121.546635,25.04525,16,23,21,21,20,18,17,14,13,9,7,11,14,18,13,7,5,4
374,麗湖國小,內湖區,121.602225,25.073322,11,11,10,10,9,9,9,9,7,12,12,13,11,18,14,16,17,16
375,銘傳大學,士林區,121.526766,25.087714,13,13,12,11,8,11,11,14,14,17,18,12,16,11,11,7,9,6
376,民生建國路口,中山區,121.536915,25.057778,5,3,6,6,2,3,14,14,15,10,7,8,7,8,11,16,17,19
377,南港路二段178巷口,南港區,121.599693,25.053675,14,14,14,13,13,10,7,7,7,6,6,9,11,8,10,14,17,18
378,陽光街321巷口,內湖區,121.578691,25.073193,17,16,16,18,20,20,19,20,23,28,17,12,7,17,21,18,18,17
379,春光公園,信義區,121.580762,25.042619,27,25,16,15,11,8,12,14,22,14,12,16,22,15,14,22,29,32
380,塔悠疏散門,松山區,121.567899,25.064713,15,17,19,19,18,17,17,20,20,20,16,8,2,6,8,10,20,19
381,民權東路六段15巷,內湖區,121.578125,25.06853,14,17,17,17,18,17,20,20,21,19,19,18,19,19,19,19,18,17
382,聯合醫院和平院區,中正區,121.50639,25.03516,22,22,22,25,21,20,12,8,26,19,22,18,23,25,21,29,28,28
383,一壽橋,文山區,121.55545,24.97848,11,11,10,8,10,11,10,9,8,10,9,7,9,2,3,5,6,7
384,松基公園,松山區,121.5448,25.05491,16,16,18,16,18,19,19,18,17,16,17,8,9,17,22,24,22,19
385,和興路26巷口,文山區,121.54531,24.9856,27,25,26,25,24,19,19,14,16,16,15,13,13,14,20,26,29,30
386,錦州吉林路口,中山區,121.52981,25.06029,23,17,23,18,16,16,16,14,15,13,15,7,10,12,18,30,21,26
387,吳興街260巷,信義區,121.56316,25.0261,12,10,22,12,4,0,12,18,13,17,11,15,4,14,5,9,3,7
388,景華街128巷口,文山區,121.547092,24.995563,17,14,7,20,15,15,13,15,8,15,8,13,7,7,13,6,4,11
389,福德國小,信義區,121.586245,25.038324,13,19,22,11,9,2,2,6,1,4,5,3,1,5,7,10,26,7
390,稻香重三路口,北投區,121.489594,25.139937,19,20,17,15,11,6,9,6,7,8,6,1,5,7,8,9,17,18
391,景仁公園,文山區,121.540295,24.9966,14,14,12,16,14,12,9,9,9,9,11,12,5,7,8,12,16,20
392,南京東興路口,松山區,121.565347,25.051489,14,11,9,7,2,6,5,18,25,17,16,5,5,6,12,10,10,11
393,內溝溪生態展示館,內湖區,121.623062,25.087217,10,11,13,12,12,12,7,7,7,7,7,6,6,6,6,6,6,6
394,松德虎林街口,信義區,121.576248,25.038352,15,23,24,27,22,19,8,7,15,22,24,20,20,6,5,15,25,25
395,安強公園,信義區,121.575413,25.036844,18,13,17,13,0,1,0,0,9,3,8,15,10,9,14,7,23,18
396,新東街51巷口,松山區,121.563318,25.061501,16,20,17,15,11,10,10,12,13,12,14,18,18,1,9,11,15,18
397,劍潭海外青年活動中心,士林區,121.5237,25.079603,17,16,22,21,19,19,17,20,23,26,21,14,14,19,21,27,25,18
398,聯合醫院陽明院區,士林區,121.531949,25.104546,14,17,18,13,15,13,12,12,12,12,14,13,12,12,14,16,13,13
399,和平龍泉街口,大安區,121.52946,25.026404,0,0,0,0,0,0,0,0,0,0,0,0,0,0,0,0,0,0
400,和平敦化路口,大安區,121.549076,25.02444,10,10,10,11,11,13,24,21,18,17,19,18,20,14,11,1,14,12
401,南京新生路口,中山區,121.527661,25.051944,22,17,2,4,0,11,3,15,15,15,9,3,0,6,19,15,24,23
402,下灣公園,內湖區,121.595611,25.065159,9,9,9,10,10,10,10,10,10,8,8,7,7,11,10,10,10,10
403,捷運內湖站(1號出口),內湖區,121.593929,25.083868,12,18,4,8,9,10,13,15,13,15,13,17,15,8,17,14,10,11
404,民族延平路口,大同區,121.510569,25.068653,25,24,24,16,23,21,21,17,17,17,15,2,4,6,12,5,11,14
