sno,sna,sarea,lng,lat,607,608,609,610,611,612,613,614,615,616,617,618,619,620,621,622,623,624
1,捷運市政府站(3號出口),信義區,121.5679044,25.04085789,84,88,125,129,119,167,135,144,153,138,132,135,139,125,123,99,17,29
2,捷運國父紀念館站(2號出口),大安區,121.55742,25.041254,13,19,30,18,24,14,31,30,9,15,20,5,21,10,12,3,2,1
3,台北市政府,信義區,121.5651694,25.03779722,19,21,23,32,14,20,29,26,10,9,8,15,20,20,24,9,7,6
4,市民廣場,信義區,121.562325,25.03603611,8,10,27,20,30,47,48,47,46,43,35,36,40,39,37,43,33,34
5,興雅國中,信義區,121.5686639,25.03656389,13,21,30,30,31,36,35,30,19,26,19,44,46,47,35,43,11,29
6,臺北南山廣場,信義區,121.565973,25.034047,5,8,25,32,34,42,41,48,44,47,46,52,45,42,28,15,17,2
7,信義廣場(台北101),信義區,121.5656194,25.03303889,31,32,28,25,24,28,29,51,68,55,48,49,61,61,64,31,20,9
8,世貿三館,信義區,121.5636889,25.03521389,22,27,18,37,40,49,51,47,59,46,48,49,37,46,46,38,32,26
9,松德站,信義區,121.57448,25.031785,19,25,16,8,4,6,4,5,9,16,14,22,14,7,13,19,28,28
10,台北市災害應變中心,信義區,121.5661167,25.02866111,28,28,30,17,20,11,16,28,27,18,15,21,31,19,17,32,27,33
11,三張犁,信義區,121.55762,25.034937,40,35,12,7,6,15,28,25,23,13,4,13,22,35,33,29,52,51
12,臺北醫學大學,信義區,121.561747,25.026679,9,15,43,30,33,28,19,1,21,16,1,6,1,14,7,9,21,24
13,福德公園,信義區,121.58367,25.03809,32,24,22,43,35,31,28,24,27,25,22,16,17,16,17,15,29,24
14,榮星花園,中山區,121.54037,25.06424,27,16,4,18,17,9,6,1,1,1,4,5,16,2,0,31,18,30
15,饒河夜市,松山區,121.571885,25.049845,40,39,43,41,43,35,28,33,31,30,31,32,34,29,26,26,34,21
16,松山家商,信義區,121.579135,25.036084,20,23,24,28,26,23,10,10,12,4,0,5,5,2,13,11,22,26
17,民生光復路口,松山區,121.55514,25.05862,19,17,25,28,28,25,23,17,18,14,13,13,23,19,15,8,11,17
18,臺北市藝文推廣處,松山區,121.552278,25.048268,19,23,26,16,17,21,14,12,19,19,8,16,22,9,10,11,13,11
19,象山公園,信義區,121.56981,25.02863,13,20,18,21,26,22,16,16,19,10,16,7,0,12,21,11,13,14
20,捷運科技大樓站,大安區,121.543293,25.025896,55,62,56,47,60,69,52,42,40,36,29,35,46,50,37,24,16,26
21,民生敦化路口,松山區,121.548982,25.057985,8,5,20,21,24,28,27,25,21,26,28,22,20,42,39,38,41,36
22,松山車站,信義區,121.57845,25.048824,19,27,37,35,28,38,39,25,33,35,26,15,5,9,37,7,14,13
23,東新國小,南港區,121.602798,25.055074,18,16,12,6,15,1,2,7,12,7,1,4,5,12,17,7,21,26
24,信義建國路口,大安區,121.53747,25.03293,26,22,2,1,27,14,11,13,36,46,45,21,1,5,13,23,27,20
25,永吉松信路口,信義區,121.57205,25.04543,11,20,18,22,10,11,13,9,8,23,24,1,17,8,2,15,12,17
26,捷運昆陽站(1號出口),南港區,121.592375,25.050142,24,22,20,24,25,29,30,27,18,14,26,25,30,29,20,23,14,16
27,捷運南港展覽館站(5號出口),南港區,121.61669,25.05469,2,5,13,35,12,19,36,14,12,11,11,25,24,14,10,24,3,18
28,五常公園,信義區,121.57467,25.04814,14,23,18,20,19,14,17,8,10,12,10,15,4,2,6,9,21,24
29,金山愛國路口,大安區,121.52655,25.03164,18,9,12,14,18,21,12,19,19,12,8,1,21,28,28,28,20,16
30,基隆長興路口,大安區,121.544352,25.017054,58,58,40,45,54,55,35,47,56,50,43,30,12,22,45,71,74,58
31,辛亥新生路口,大安區,121.53456,25.022413,17,19,11,14,11,11,10,23,23,21,21,8,2,7,9,24,14,12
32,捷運六張犁站,大安區,121.553161,25.023884,17,19,25,23,27,20,1,11,19,10,8,16,12,1,1,19,25,19
33,中崙高中,松山區,121.56087,25.04878,13,11,4,9,11,13,5,14,19,30,27,19,22,25,16,16,19,18
34,捷運行天宮站(1號出口),中山區,121.532934,25.058369,12,17,10,8,4,18,17,12,11,17,16,13,18,22,17,17,25,24
35,捷運行天宮站(3號出口),中山區,121.533302,25.059978,19,14,17,21,14,18,25,16,20,18,16,26,20,15,12,12,9,18
36,臺大資訊大樓,大安區,121.54153,25.02101,11,14,12,19,22,12,21,40,46,36,63,44,44,18,13,5,6,8
37,捷運東門站(4號出口),大安區,121.528988,25.0337,34,34,34,26,25,22,3,5,3,4,2,18,37,20,6,3,24,19
38,臺灣師範大學(圖書館),大安區,121.52889,25.02665,1,6,10,18,10,13,7,23,15,13,19,12,8,18,16,16,15,5
39,南港世貿公園,南港區,121.61422,25.058,12,9,12,11,16,18,11,10,5,16,9,7,16,16,13,8,7,9
40,玉成公園,南港區,121.5864,25.04287,0,0,0,0,0,0,0,0,0,0,0,0,0,0,0,0,0,0
41,中研公園,南港區,121.613706,25.047425,11,11,12,14,18,15,10,18,20,13,18,18,6,7,16,29,12,17
42,捷運後山埤站(1號出口),信義區,121.58174,25.04431,22,8,23,23,28,33,28,25,30,20,7,8,21,17,17,12,8,8
43,凌雲市場,南港區,121.614154,25.035639,25,28,26,25,20,18,17,16,14,17,14,12,23,10,18,21,25,20
44,捷運南港軟體園區站(2號出口),南港區,121.616187,25.05973,21,19,21,23,24,24,22,23,24,20,17,14,21,17,15,14,19,17
45,捷運公館站(2號出口),大安區,121.534538,25.01476,8,6,11,2,17,4,10,8,17,12,25,8,18,5,4,22,3,9
46,南港國小,南港區,121.611027,25.05646,21,19,18,20,22,21,18,17,18,9,8,7,10,6,9,13,13,17
47,捷運忠孝新生站(3號出口),大安區,121.533862,25.041924,16,20,20,17,24,12,8,10,5,7,10,5,10,5,0,0,4,6
48,南港車站(忠孝東路),南港區,121.608202,25.05247,11,14,11,11,9,10,9,6,7,17,18,25,20,22,19,16,19,14
49,龍門廣場,大安區,121.548252,25.040901,16,19,29,2,12,24,31,12,18,22,36,5,16,13,2,13,17,38
50,民權運動公園,松山區,121.560186,25.062002,24,24,21,23,23,26,29,30,33,30,33,30,16,16,21,19,25,23
51,建國農安街口,中山區,121.536775,25.065031,23,22,20,21,28,20,21,18,13,11,12,7,9,9,8,2,26,29
52,建國長春路口,中山區,121.536925,25.054761,11,5,10,11,12,5,4,7,2,3,2,8,9,16,13,19,14,17
53,八德市場,中山區,121.536609,25.044781,16,19,18,5,1,9,2,8,16,15,12,9,12,10,6,3,5,3
54,臺北市立圖書館(總館),大安區,121.538073,25.028798,16,11,10,15,17,5,29,15,18,1,0,3,5,11,11,18,19,24
55,臺北田徑場,松山區,121.549408,25.049505,7,8,4,6,3,9,10,11,23,20,10,7,18,22,10,0,16,14
56,仁愛林森路口,中正區,121.522334,25.038954,8,13,29,30,17,12,14,31,36,21,19,13,12,3,9,3,9,7
57,新生和平路口,大安區,121.53519,25.026217,22,24,30,27,14,12,7,32,39,30,27,16,17,21,9,7,26,29
58,捷運善導寺站(1號出口),中正區,121.5222,25.045267,9,4,19,20,24,34,32,23,20,17,16,7,24,20,17,16,19,19
59,林森公園,中山區,121.525805,25.052227,16,14,13,15,12,18,19,14,14,8,11,18,11,9,10,14,10,6
60,中山行政中心,中山區,121.533487,25.064317,11,11,12,13,13,12,11,15,15,19,22,12,13,9,15,25,20,29
61,台灣科技大學,大安區,121.539723,25.0131,18,30,34,12,6,7,11,11,9,35,17,15,1,15,16,5,26,28
62,南昌公園,中正區,121.520258,25.026827,2,2,15,24,22,20,28,30,15,16,22,20,26,23,13,12,5,0
63,仁愛醫院,大安區,121.545632,25.037569,14,26,24,6,15,20,20,9,8,16,28,23,18,6,7,1,2,9
64,國家圖書館,中正區,121.517029,25.037773,14,18,34,29,34,31,33,36,33,37,22,22,17,20,17,6,4,3
65,青年公園3號出口,萬華區,121.502708,25.022725,25,36,25,19,17,13,14,21,19,22,23,1,1,3,6,17,21,27
66,師範大學公館校區,文山區,121.537188,25.007528,15,10,21,12,19,19,14,4,11,8,2,3,12,23,33,17,12,22
67,捷運臺大醫院(4號出口),中正區,121.516428,25.042973,26,24,17,22,17,18,18,12,16,8,37,20,7,37,30,9,7,0
68,國興青年路口,萬華區,121.506536,25.025865,28,21,21,24,22,24,21,26,29,18,9,18,22,20,15,7,19,20
69,興豐公園,文山區,121.547778,24.999837,21,23,19,24,21,14,12,13,15,12,13,16,11,13,7,5,7,15
70,捷運台北101/世貿站,信義區,121.561645,25.032752,40,34,21,28,34,41,43,20,16,2,10,31,22,23,22,22,17,24
71,捷運信義安和站(4號出口),大安區,121.554204,25.032985,29,12,6,26,7,22,27,12,7,11,0,0,22,11,8,5,1,4
72,新生長安路口,中山區,121.529346,25.048611,25,25,20,20,16,13,12,6,2,3,6,3,5,21,22,30,32,33
73,酒泉延平路口,大同區,121.510195,25.072228,11,12,9,9,8,8,4,4,5,5,6,9,5,9,6,11,15,16
74,信義連雲街口,中正區,121.530547,25.033817,11,10,8,1,1,3,1,1,10,12,13,12,16,21,25,31,16,19
75,基隆光復路口,信義區,121.557635,25.0300508,1,10,10,9,8,1,4,5,12,12,10,16,19,13,16,20,19,16
76,新生長春路口,中山區,121.527522,25.056387,21,27,22,3,5,7,13,8,14,9,7,10,8,8,11,13,21,20
77,民生活動中心,松山區,121.56297,25.059147,15,15,13,18,26,24,17,12,12,5,0,11,8,15,16,16,17,16
78,捷運圓山站(2號出口),大同區,121.519287,25.071824,29,36,30,21,18,21,25,20,13,22,7,41,48,50,27,20,0,0
79,捷運民權西路站(3號出口),大同區,121.520205,25.061285,20,23,15,18,20,18,15,24,23,18,13,7,9,6,1,2,4,11
80,華江高中,萬華區,121.495869,25.02751,27,14,16,19,15,17,32,39,32,35,26,16,17,27,15,26,34,32
81,捷運台電大樓站(2號出口),大安區,121.528552,25.020547,30,29,28,12,5,22,20,11,19,6,9,1,25,10,0,24,33,29
82,捷運西門站(3號出口),中正區,121.508693,25.041778,26,29,28,29,35,17,30,23,33,28,20,9,18,26,27,10,2,0
83,捷運大安森林公園站,大安區,121.535161,25.033156,68,66,49,49,43,34,37,34,51,47,50,45,45,31,27,26,10,4
84,復華花園新城,萬華區,121.502899,25.029705,23,23,18,24,18,22,21,19,26,28,25,13,16,16,6,18,16,18
85,信義敦化路口,大安區,121.54911,25.033362,17,26,26,20,22,16,23,23,22,24,24,19,19,24,14,14,15,20
86,民權復興路口,松山區,121.545138,25.062344,30,26,25,26,26,30,27,26,30,16,16,23,22,25,28,17,23,13
87,捷運大安站,大安區,121.543057,25.033078,19,1,12,13,4,9,17,2,4,6,1,10,1,0,7,15,14,7
88,捷運象山站,信義區,121.57087,25.032922,34,38,61,47,25,17,22,24,27,26,34,25,35,41,24,20,13,1
89,和平重慶路口,中正區,121.516385,25.027323,37,36,22,32,28,15,16,8,23,22,19,25,6,2,9,23,28,37
90,老松國小,萬華區,121.501708,25.037783,8,12,5,3,17,17,13,14,13,16,14,11,4,6,4,3,4,10
91,市立美術館,中山區,121.523268,25.070629,19,22,24,18,20,26,24,30,32,22,22,3,22,18,8,19,17,15
92,開封西寧路口,萬華區,121.507169,25.046618,18,19,12,16,8,15,19,8,9,8,6,0,2,1,13,9,9,11
93,吳興公車總站,信義區,121.569836,25.023877,29,15,46,47,45,34,16,21,26,21,15,7,6,6,16,41,15,30
94,捷運景美站,文山區,121.541059,24.993254,13,18,16,27,16,12,22,30,30,21,20,9,33,36,15,29,11,3
95,東園國小,萬華區,121.497679,25.023393,26,26,22,20,22,20,8,12,10,0,0,0,19,1,2,15,28,20
96,三民公園,松山區,121.566558,25.061567,19,20,20,15,13,12,11,9,11,11,5,2,0,6,9,13,21,26
97,捷運劍潭站(2號出口),士林區,121.524721,25.082825,29,27,15,18,37,15,31,31,19,28,25,16,7,44,32,28,6,11
98,羅斯福景隆街口,文山區,121.540197,24.999378,32,33,36,33,28,24,23,24,25,18,14,10,15,16,8,6,6,5
99,捷運雙連站(2號出口),大同區,121.520711,25.057866,14,18,22,25,31,34,30,35,21,25,14,19,14,22,21,16,11,9
100,金山市民路口,中正區,121.530697,25.045753,4,3,6,9,8,7,4,22,19,21,18,8,5,3,1,2,6,5
101,華山文創園區,中正區,121.528487,25.043668,19,17,26,29,21,16,18,25,22,16,10,25,23,13,11,3,4,3
102,臺北市客家文化主題公園,中正區,121.525322,25.02043,15,11,4,0,2,1,10,9,10,11,8,2,17,32,15,19,29,18
103,萬華車站,萬華區,121.503028,25.033639,23,21,17,15,14,16,13,8,10,9,8,6,8,9,6,11,5,7
104,台北花木批發市場,文山區,121.54074,25.004023,28,22,26,17,19,20,15,15,17,17,17,11,13,10,21,7,4,8
105,峨嵋停車場,萬華區,121.505409,25.044412,12,13,5,6,9,10,10,8,12,1,2,0,1,7,12,6,9,1
106,西園艋舺路口,萬華區,121.497674,25.032932,25,28,22,19,20,20,25,20,18,19,16,16,14,4,0,21,20,15
107,捷運小南門站(1號出口),中正區,121.509422,25.036402,24,27,37,33,36,33,33,27,30,31,25,17,11,22,18,15,13,12
108,臺北孔廟,大同區,121.515843,25.073306,19,20,11,25,18,16,13,17,22,24,14,10,9,7,16,9,19,19
109,林安泰古厝,中山區,121.530805,25.071606,9,9,17,15,16,13,12,9,9,7,7,4,3,4,8,11,14,14
110,文湖國小,內湖區,121.560888,25.086376,33,27,11,1,24,15,15,9,3,3,5,0,6,15,26,13,21,30
111,捷運忠孝復興站(2號出口),大安區,121.543497,25.040184,36,17,19,24,23,18,19,28,21,8,39,50,24,16,0,18,1,13
112,捷運新北投站,北投區,121.503124,25.137456,41,32,28,23,25,18,9,6,7,14,10,1,5,2,4,8,13,18
113,仁愛逸仙路口,信義區,121.561178,25.037724,23,23,21,20,20,16,10,20,21,22,28,28,24,30,24,15,16,19
114,蘭雅公園,士林區,121.530386,25.109908,8,11,14,4,5,13,0,11,15,18,19,15,10,11,13,13,11,12
115,臺北轉運站,中正區,121.520526,25.048222,46,49,37,33,37,29,40,37,50,32,36,33,40,38,32,29,6,28
116,福林公園,士林區,121.530215,25.096122,20,14,18,24,25,29,27,23,22,21,18,16,15,13,15,14,18,22
117,捷運北投站,北投區,121.498618,25.132581,25,33,36,45,12,33,39,27,25,28,17,26,15,23,24,15,15,1
118,大業大同街口,北投區,121.499152,25.136929,27,18,24,20,16,10,1,3,15,5,6,4,10,15,20,5,15,26
119,捷運劍南路站(2號出口),中山區,121.555116,25.08418,1,8,15,27,22,29,15,26,27,19,19,11,6,16,13,8,0,11
120,捷運龍山寺站(1號出口),萬華區,121.50026,25.035479,9,6,10,13,14,12,17,20,33,38,43,45,21,9,13,1,1,22
121,龍江南京路口,中山區,121.540568,25.05298,40,41,43,47,42,45,41,41,41,44,45,43,31,29,27,29,29,34
122,捷運港墘站(2號出口),內湖區,121.57584,25.079666,22,25,26,27,19,27,29,23,22,12,12,26,19,20,16,10,11,10
123,天母運動公園,士林區,121.534136,25.116325,21,26,23,27,31,29,23,27,34,30,30,24,34,19,21,13,6,11
124,振華公園,北投區,121.518163,25.115863,30,29,25,23,27,30,31,31,27,28,28,11,13,19,22,21,24,23
125,華西公園,萬華區,121.498495,25.038609,21,25,25,25,10,9,10,11,15,3,3,2,12,10,13,16,26,29
126,敦化基隆路口,大安區,121.548336,25.022073,17,16,18,18,17,18,17,19,22,24,25,20,10,16,21,25,17,17
127,東湖國中,內湖區,121.619521,25.073277,23,26,22,22,21,22,15,14,15,17,15,12,11,11,17,23,31,29
128,成功國宅,大安區,121.546726,25.026808,20,16,16,13,2,0,9,13,17,10,12,6,4,9,11,3,17,25
129,捷運文德站(2號出口),內湖區,121.58456,25.078424,27,29,27,28,30,30,28,26,21,18,21,24,26,17,16,21,26,27
130,羅斯福寧波東街口,中正區,121.519411,25.031445,4,10,8,11,16,16,15,16,14,9,5,1,18,24,10,15,18,17
131,洲子二號公園,內湖區,121.568688,25.079322,6,6,8,9,12,20,17,21,21,18,17,17,16,24,15,9,2,1
132,羅斯福新生南路口,大安區,121.5331757,25.01603085,69,65,59,58,35,54,67,72,73,38,21,35,80,43,79,53,21,16
133,蘭興公園,士林區,121.525888,25.111839,16,25,18,20,14,15,3,1,7,3,5,7,15,15,25,8,22,27
134,捷運芝山站(2號出口),士林區,121.522629,25.10336,37,41,0,6,24,38,57,34,41,45,27,45,34,5,21,0,0,1
135,捷運石牌站(2號出口),北投區,121.515677,25.114513,21,7,5,24,24,31,27,23,30,45,47,20,19,24,20,11,3,14
136,國立臺北護理健康大學,北投區,121.517512,25.118049,12,22,18,6,11,8,10,9,9,3,0,10,7,5,2,3,4,3
137,國防大學,北投區,121.493066,25.137976,12,11,6,0,11,8,7,7,4,4,4,3,14,27,29,20,20,20
138,捷運永春站(2號出口),信義區,121.575372,25.040558,25,21,13,16,25,30,21,12,15,6,16,5,9,10,9,6,8,2
139,永樂市場,大同區,121.510549,25.054501,7,9,15,29,3,1,7,31,22,13,2,1,10,10,15,9,14,13
140,捷運大橋頭站(2號出口),大同區,121.512909,25.063404,17,23,19,10,8,5,11,4,9,3,15,1,13,16,13,10,2,23
141,文山行政中心,文山區,121.569984,24.989902,16,16,26,26,29,28,31,14,15,17,19,13,5,8,7,5,9,9
142,捷運木柵站,文山區,121.574214,24.997747,25,27,28,26,27,27,31,25,28,28,27,27,28,24,22,18,14,6
143,捷運動物園站(2號出口),文山區,121.578752,24.997659,19,19,27,28,29,30,29,33,36,34,27,25,25,18,10,3,0,8
144,國立政治大學,文山區,121.576536,24.988363,20,22,32,34,33,33,32,33,33,31,31,24,25,30,33,29,40,46
145,樹德公園,大同區,121.516149,25.066688,30,31,19,25,26,25,21,15,18,20,19,11,12,18,9,12,19,26
146,捷運士林站(2號出口),士林區,121.526556,25.092546,24,16,15,11,11,18,15,9,5,7,13,4,20,6,4,1,0,15
147,士林運動中心,士林區,121.521814,25.089175,21,24,8,9,2,9,16,18,17,16,21,2,13,21,13,4,9,7
148,捷運明德站,北投區,121.518316,25.110331,16,17,27,27,26,25,23,24,27,25,29,24,31,23,29,38,49,43
149,北投運動中心,北投區,121.509621,25.116665,46,57,54,41,39,36,23,22,25,15,14,14,14,21,33,20,34,40
150,松德公園,信義區,121.57343,25.036568,20,16,8,7,0,0,10,10,10,13,16,19,10,13,15,23,26,28
151,考試院,文山區,121.549827,24.987507,20,28,16,11,12,12,7,6,7,7,2,0,15,12,20,11,20,20
152,百齡國小,士林區,121.519175,25.08521,30,25,31,22,34,20,12,13,9,9,15,17,13,10,6,22,20,31
153,蔣渭水紀念公園,大同區,121.516299,25.059885,25,23,21,23,21,15,13,18,9,4,1,7,4,13,19,27,31,31
154,中正基河路口,士林區,121.519867,25.093396,21,22,17,19,22,21,17,21,16,14,10,18,14,18,12,17,25,16
155,瑞光港墘路口,內湖區,121.57505,25.076193,11,13,14,12,17,20,23,11,14,22,22,24,16,11,16,22,21,18
156,東湖國小,內湖區,121.61538,25.06853,15,14,11,13,22,20,24,13,10,13,7,10,13,12,27,2,4,6
157,麗山國小,內湖區,121.571467,25.082703,13,11,7,7,4,11,11,10,11,10,6,2,6,3,4,9,15,17
158,捷運東湖站,內湖區,121.61355,25.067026,16,17,24,30,28,32,31,34,31,27,26,16,2,11,14,15,3,6
159,捷運西湖站(1號出口),內湖區,121.566695,25.082866,9,4,7,8,15,16,16,13,12,9,9,6,8,10,10,9,5,2
161,大豐公園,北投區,121.503768,25.131143,42,39,39,20,37,33,31,36,25,26,25,24,28,32,31,46,33,35
162,捷運中山國小站(4號出口),中山區,121.52772,25.062924,34,24,21,17,10,8,5,7,8,4,6,1,4,4,6,7,25,28
163,捷運麟光站2號出口,大安區,121.559279,25.018097,59,56,52,47,44,40,32,33,33,31,34,18,17,21,27,42,59,65
164,捷運奇岩站,北投區,121.500801,25.126286,11,17,17,30,39,28,33,37,41,44,41,26,20,23,18,22,14,13
165,捷運唭哩岸站(2號出口),北投區,121.505693,25.120788,5,4,4,5,6,9,20,27,25,28,20,22,21,28,32,30,31,29
166,臺北市立景美女中,文山區,121.556177,24.980602,10,9,12,14,14,15,12,15,18,17,15,8,12,7,9,15,23,17
167,臺北市立天文館,士林區,121.518046,25.095714,32,38,22,30,30,34,38,39,29,38,32,23,9,5,2,6,7,7
168,河堤國小,中正區,121.522855,25.02288,32,28,32,23,20,12,7,4,8,4,5,10,15,18,19,15,20,23
169,植物園,中正區,121.509813,25.030015,31,28,24,24,22,20,24,20,26,20,20,17,18,15,26,36,38,39
170,新東公園,松山區,121.568883,25.059245,14,18,13,11,12,6,10,11,13,14,12,11,3,21,14,12,27,28
171,文山運動中心,文山區,121.559651,24.996842,25,31,22,23,22,22,21,23,25,24,23,19,20,15,13,9,15,17
172,捷運南京三民站(1號出口),松山區,121.562891,25.051562,21,10,6,14,11,16,13,24,14,7,12,1,17,19,5,5,0,2
173,捷運松江南京站(7號出口),中山區,121.533211,25.052181,44,46,37,35,34,42,41,40,20,21,30,11,39,25,14,4,4,17
174,捷運小巨蛋站(5號出口),松山區,121.553057,25.051702,21,25,18,39,39,31,45,47,25,19,21,23,11,19,15,12,39,42
175,捷運南京復興站(5號出口),松山區,121.544847,25.051618,16,18,26,26,32,18,15,2,19,31,26,28,30,13,27,18,13,8
176,興安華城,中山區,121.542318,25.055997,70,73,69,68,63,55,49,55,54,55,52,50,49,70,70,69,64,71
177,葫蘆國小,士林區,121.507495,25.082538,17,19,21,22,20,25,24,23,23,25,20,16,20,23,6,14,23,21
178,延平國宅,士林區,121.510306,25.078908,13,10,11,13,15,14,15,14,12,13,11,11,6,3,2,10,15,17
179,南港公園,南港區,121.59073,25.041355,35,34,34,32,28,25,23,18,19,19,23,9,2,2,4,2,17,19
180,福華商場,內湖區,121.592654,25.06877,13,15,18,16,15,16,16,15,15,14,11,13,13,17,19,15,17,19
181,建國和平路口,大安區,121.537383,25.02585,31,39,50,25,10,32,23,25,24,13,1,3,16,2,3,5,14,19
182,捷運古亭站(2號出口),中正區,121.523537,25.0253,15,17,17,26,33,36,38,38,36,32,25,18,22,7,7,1,2,6
183,圓環站,大同區,121.514179,25.05379,22,21,17,19,10,9,9,11,4,4,3,5,1,8,9,6,9,8
184,劍潭社區,中山區,121.537892,25.084759,20,18,31,28,27,24,23,23,21,18,17,12,15,14,13,14,17,17
185,?公公園,大安區,121.54605,25.042342,1,4,1,4,4,11,19,19,24,17,10,27,23,16,25,9,16,10
186,臺北市立大學,中正區,121.514218,25.035414,37,38,39,43,33,32,34,31,31,31,25,16,19,14,13,5,3,4
187,仁愛延吉街口,大安區,121.555769,25.037465,14,15,14,4,15,14,12,12,18,17,18,15,31,15,10,23,28,33
188,社子國小,士林區,121.50189,25.090293,39,40,39,39,37,41,39,37,36,36,37,33,41,23,25,25,37,42
189,金瑞公園(金龍路),內湖區,121.58781,25.087987,26,16,28,18,19,10,2,3,2,0,1,5,8,10,11,22,9,13
190,捷運大直站(3號出口),中山區,121.546683,25.079278,10,11,7,7,10,14,17,20,19,18,20,23,33,33,33,39,32,20
191,捷運大湖公園站(2號出口),內湖區,121.60206,25.083873,10,10,8,24,26,25,27,30,30,33,33,34,28,32,17,15,13,13
192,捷運葫洲站(1號出口),內湖區,121.607955,25.072485,9,12,7,11,10,12,16,17,16,15,16,11,11,9,3,3,12,15
193,舊莊區民活動中心,南港區,121.61935,25.041277,23,20,23,20,23,21,22,20,21,25,24,10,6,12,3,6,8,12
194,市民林森路口,中山區,121.524388,25.047958,27,27,24,23,22,19,20,13,10,29,29,35,39,36,42,30,35,33
195,信義杭州路口(中華電信總公司),中正區,121.523987,25.035851,31,27,19,39,39,34,42,44,26,23,35,21,17,15,18,28,28,31
196,新湖國小,內湖區,121.589233,25.068744,9,5,7,8,8,8,9,7,8,13,12,12,11,9,9,6,9,13
197,饒河夜市(八德路側),松山區,121.571885,25.049845,22,20,18,17,14,12,13,8,9,6,6,4,9,15,16,8,2,10
201,東陽公園,南港區,121.597924,25.057164,26,25,24,23,23,23,16,19,22,30,29,24,8,12,20,24,31,36
202,捷運關渡站,北投區,121.467336,25.124646,36,25,21,24,17,20,26,27,21,48,53,17,15,15,36,28,29,24
203,古亭國中,萬華區,121.51057,25.024487,22,24,16,13,12,10,10,10,12,11,5,2,6,7,14,13,18,26
204,臺北市立大學(天母校區),士林區,121.53742,25.113625,18,16,11,8,15,15,14,14,14,20,21,19,15,23,28,16,24,24
205,木柵光輝路口,文山區,121.55561,24.988241,20,18,15,15,16,16,16,13,14,15,15,20,4,5,4,6,9,13
206,捷運辛亥站,文山區,121.55716,25.005386,16,17,15,16,15,15,14,13,14,12,11,7,10,2,7,14,10,11
207,福安國中,士林區,121.487477,25.103242,7,6,7,7,7,10,10,11,12,12,11,13,13,15,15,15,15,15
208,龍山國小,萬華區,121.495342,25.035555,33,27,20,20,20,20,16,18,21,22,19,20,19,18,15,19,19,22
209,捷運復興崗站,北投區,121.486071,25.137837,15,14,17,14,13,17,17,21,17,15,12,11,1,4,2,8,13,11
210,樂群二敬業四路口,中山區,121.558135,25.079766,48,42,39,26,23,21,12,11,3,5,0,6,12,23,26,27,39,48
211,星雲金湖街口,內湖區,121.597339,25.080915,11,10,8,5,20,20,17,17,20,22,22,19,17,15,16,22,25,25
212,北安大直街口,中山區,121.549452,25.084223,18,18,22,22,25,18,17,12,8,28,27,23,20,21,24,27,26,25
213,蘭雅國小,士林區,121.523107,25.107782,5,5,15,14,16,18,20,22,25,28,26,11,8,15,18,24,23,22
214,基河一期國宅,內湖區,121.578645,25.055935,23,23,21,20,20,19,17,18,14,14,14,13,13,16,15,20,24,26
215,捷運北門站(3號出口),大同區,121.510367,25.04993,15,14,24,28,32,28,43,33,45,33,28,2,26,23,28,28,14,7
216,培英公園,中山區,121.544601,25.082553,21,36,42,41,30,28,25,24,23,25,27,26,24,20,13,13,19,19
217,臺北花市,內湖區,121.574267,25.062645,10,14,17,4,10,16,20,19,26,17,19,33,23,22,18,4,4,1
218,松山高中,信義區,121.564108,25.043299,0,0,0,0,0,0,0,0,0,0,0,0,0,0,0,0,0,0
219,大理高中,萬華區,121.49074,25.031147,26,37,30,27,25,24,16,11,18,20,21,8,7,12,16,27,36,37
220,大稻埕公園,大同區,121.510512,25.059162,2,4,14,1,2,1,10,7,4,2,9,8,12,27,11,3,13,12
221,泰和公園,信義區,121.57107,25.019276,20,11,22,12,25,12,4,19,9,3,2,6,9,10,6,18,22,24
222,撫順公園,中山區,121.522065,25.064108,9,10,13,10,12,8,2,3,3,2,2,3,15,13,7,11,9,16
223,清江國小,北投區,121.507267,25.1274,25,30,31,25,19,13,18,25,17,11,8,5,10,12,22,25,39,32
224,社正公園,士林區,121.510535,25.088243,32,18,15,15,15,16,18,18,18,21,21,15,9,17,17,18,27,23
225,臥龍樂業街口,大安區,121.554839,25.0186,30,23,32,29,22,32,30,24,23,21,27,23,11,20,21,19,32,35
226,向陽南港路口,南港區,121.594228,25.054365,13,18,22,19,18,17,17,17,17,14,8,6,8,4,9,10,14,13
227,麗山高中,內湖區,121.57668,25.084244,21,21,23,23,20,16,15,13,13,16,18,17,18,23,26,29,30,31
228,捷運萬芳社區站,文山區,121.567474,24.998956,11,10,9,9,11,11,8,15,14,12,11,10,9,9,13,17,19,19
229,市民太原路口,大同區,121.514611,25.049394,7,6,6,3,13,1,1,0,10,16,18,11,15,18,20,13,1,5
230,湖光國宅,內湖區,121.580811,25.075366,21,16,12,12,7,11,9,8,8,11,14,12,9,8,13,17,21,22
231,內政部營建署,松山區,121.545022,25.047805,15,15,19,21,24,20,9,5,7,6,3,4,16,23,27,30,13,14
232,中山天母路口,士林區,121.529738,25.118843,17,15,15,22,19,16,14,26,20,23,17,10,15,9,6,4,5,5
233,捷運忠義站,北投區,121.474155,25.131411,3,3,0,3,4,0,4,11,13,14,14,16,15,11,11,11,10,11
234,永欣綠地,北投區,121.526071,25.124162,21,22,17,13,8,20,24,24,26,21,19,20,17,15,14,15,13,11
235,市民東興路口,松山區,121.565928,25.04846,7,8,6,0,17,23,19,23,23,23,17,14,6,18,22,25,21,14
236,關渡自然公園,北投區,121.469138,25.119292,27,27,31,26,24,22,21,23,31,29,27,5,7,9,5,9,15,22
237,文山第二行政中心,文山區,121.551418,25.001149,22,24,26,21,15,13,14,13,13,12,17,9,6,16,9,32,19,25
238,瑞湖陽光街口,內湖區,121.575965,25.073119,8,7,16,19,24,12,10,13,14,16,18,17,11,9,15,13,12,15
239,新明路321巷口,內湖區,121.584098,25.056687,19,17,21,22,21,21,15,15,14,13,11,13,9,11,12,14,16,20
240,南京建國路口,中山區,121.536802,25.052141,43,30,28,30,31,37,44,49,42,40,42,42,32,29,28,33,31,29
241,林口公園,信義區,121.579146,25.038943,15,22,12,17,14,10,17,13,13,9,6,11,20,7,5,7,11,16
242,關渡宮,北投區,121.463161,25.117472,14,3,6,5,8,6,10,24,19,21,12,17,8,24,17,15,22,20
243,社子公園,士林區,121.506219,25.090202,19,21,21,22,22,20,18,16,14,14,13,14,15,3,6,6,12,12
244,復興市民路口,中山區,121.543736,25.045908,12,8,0,15,19,28,34,35,24,23,9,13,7,11,14,1,0,11
245,捷運中山國中站,中山區,121.544028,25.060632,23,24,23,17,29,44,18,12,22,20,5,41,41,21,7,12,0,8
246,國立故宮博物院,士林區,121.548086,25.098743,3,2,6,2,3,4,7,7,8,12,10,8,8,9,9,8,8,6
247,木柵公園,文山區,121.560627,24.987144,14,11,4,7,8,8,16,15,17,13,11,12,14,5,10,9,9,13
248,喬治工商,大安區,121.555566,25.027123,15,21,10,20,17,18,23,11,11,8,6,11,12,19,8,14,14,9
249,中華桂林路口,萬華區,121.506624,25.037706,22,15,15,13,17,17,15,28,16,9,1,23,12,25,10,12,6,3
250,忠孝東路三段217巷口,大安區,121.539873,25.04184,17,13,14,12,8,9,5,23,28,28,25,16,11,12,8,8,13,11
251,華齡公園,士林區,121.520692,25.083023,24,18,3,27,23,15,15,18,20,22,18,12,23,14,3,6,28,19
252,大安運動中心,大安區,121.545608,25.020544,12,13,22,30,33,9,16,20,23,32,31,13,5,15,6,0,6,7
253,芝山抽水站,士林區,121.52799,25.101423,13,9,19,21,19,16,14,6,2,3,2,2,6,9,7,11,12,12
254,立功立德路口,北投區,121.471482,25.125377,13,23,24,24,24,20,16,18,20,14,12,6,2,6,1,2,8,9
255,光復南路22巷口,松山區,121.557674,25.046914,14,9,15,13,4,0,9,6,18,22,25,10,10,16,28,15,15,20
256,中山中正路口,士林區,121.527526,25.096507,20,17,17,18,15,14,21,21,22,18,17,9,11,14,7,6,7,8
257,錦德公園,萬華區,121.492637,25.023316,24,19,14,13,9,7,2,4,8,8,10,6,6,14,19,8,12,16
258,聯合醫院中興院區,大同區,121.507979,25.052096,16,15,11,6,6,8,7,3,0,1,1,5,1,0,6,12,14,14
259,南京遼寧街口,中山區,121.542168,25.051761,5,16,13,0,18,25,25,29,25,24,17,20,11,28,15,0,5,11
260,民權瑞光路口,內湖區,121.583991,25.068616,9,9,9,9,7,15,12,14,13,11,12,8,11,8,9,10,11,12
261,健康新城,松山區,121.560928,25.054095,28,26,25,28,25,20,14,10,12,9,2,5,2,4,3,10,25,32
262,永安藝文館-表演36房,文山區,121.569064,24.984144,19,14,13,11,11,8,8,7,7,6,7,4,6,7,4,10,15,17
263,至善臨溪路口,士林區,121.542153,25.097103,14,14,9,10,20,18,15,12,15,14,14,12,8,8,7,7,6,7
264,秀山區民活動中心,北投區,121.493009,25.145936,12,11,7,7,6,6,3,17,17,16,16,9,9,7,5,5,10,10
265,中央北路四段30巷口,北投區,121.478,25.135394,16,16,17,17,17,17,19,19,12,12,12,12,12,10,5,5,8,10
266,洲子一號公園,內湖區,121.564806,25.080258,10,9,10,12,15,15,17,25,22,18,19,19,10,10,11,9,11,9
267,八德中坡路口,南港區,121.580194,25.05062,28,28,26,25,26,25,21,21,17,18,19,18,20,24,19,18,26,28
268,南港高工,南港區,121.607055,25.056655,17,18,18,17,16,13,13,14,14,9,10,4,9,14,15,17,17,22
269,三軍總醫院,內湖區,121.590304,25.070723,22,23,22,22,21,22,21,23,20,17,15,15,5,5,16,22,25,25
270,雨農國小,士林區,121.529217,25.105429,25,18,18,19,18,9,7,2,10,17,15,10,13,13,10,12,22,12
271,伊通長安路口,中山區,121.534693,25.048334,6,7,8,11,15,23,25,20,19,16,16,9,3,5,7,5,4,1
272,忠順區民活動中心,文山區,121.563125,24.984707,21,21,21,17,18,21,23,28,28,27,29,4,10,12,5,15,17,22
273,芝山國小,士林區,121.535954,25.110437,28,27,19,11,28,28,30,26,26,24,23,18,9,10,13,13,23,27
274,扶輪親恩公園,內湖區,121.579833,25.066997,19,17,16,15,14,14,14,13,10,8,10,11,10,12,12,14,13,13
275,西本願寺廣場,萬華區,121.507688,25.040988,14,16,18,21,15,16,21,12,33,29,33,29,15,17,22,14,0,1
276,三興公園,信義區,121.55932,25.028679,24,16,22,20,9,5,4,6,6,5,10,4,1,2,8,10,21,22
277,中山堂,中正區,121.51025,25.044091,11,10,11,15,16,16,21,19,20,21,17,14,11,4,6,3,2,2
278,明美公園,內湖區,121.586065,25.062557,18,18,21,21,18,17,18,19,19,23,24,14,10,13,13,13,12,11
279,南港車站(興華路),南港區,121.606331,25.053432,8,13,11,11,16,24,31,12,14,22,29,30,21,21,9,20,20,4
280,士林新天地,士林區,121.51732,25.089034,14,11,5,8,3,4,0,0,13,10,5,5,2,1,6,10,7,13
281,松江公園,中山區,121.532725,25.050245,4,4,1,1,2,6,18,13,15,13,11,8,9,5,10,8,2,8
282,富台公園,信義區,121.571999,25.041935,26,24,14,14,16,17,16,18,20,14,12,11,7,4,1,10,23,29
283,中央北路四段540巷口,北投區,121.4677,25.127959,20,21,21,21,20,17,17,16,14,15,14,16,18,20,12,7,8,8
284,華聲公園,士林區,121.522096,25.096166,25,28,26,28,27,27,28,25,17,19,19,17,14,11,18,24,18,19
285,螢橋國小,中正區,121.51377,25.025966,27,29,24,11,27,28,21,24,26,27,19,14,11,15,20,10,18,22
286,德明財經科技大學,內湖區,121.565713,25.086372,25,26,26,23,19,21,22,23,20,19,19,17,14,13,14,20,25,29
287,第二果菜批發市場,中山區,121.538264,25.067558,26,32,23,20,15,19,29,27,9,12,12,18,10,12,8,9,32,34
288,濟南紹興路口,中正區,121.524591,25.041928,39,40,35,37,30,26,13,42,40,42,37,32,26,26,27,25,32,37
289,牯嶺公園,中正區,121.518835,25.023377,22,20,23,34,30,21,14,4,4,5,2,0,2,15,23,4,18,22
290,新生公園,中山區,121.530188,25.068387,16,16,21,22,22,14,15,12,12,8,7,0,3,0,2,2,1,10
291,捷運松山站(3號出口),松山區,121.577459,25.049616,41,49,28,36,30,34,40,33,27,28,31,12,45,19,25,23,2,18
292,合心廣場,南港區,121.582848,25.046361,21,23,24,27,31,26,23,27,26,16,17,15,26,27,26,20,17,20
293,自來水園區,中正區,121.530037,25.013284,15,18,14,15,10,15,18,21,32,28,17,35,26,24,15,21,28,22
294,朱崙商場,中山區,121.540431,25.047617,10,7,8,9,4,7,7,7,3,11,9,5,7,2,11,8,1,7
295,敦親公園,大安區,121.541083,25.023473,16,12,23,22,22,13,10,15,8,12,4,7,14,12,10,18,23,24
296,萬和二號公園,文山區,121.536446,25.001545,14,22,17,14,12,19,20,22,23,25,7,5,10,7,9,19,21,25
297,長沙公園,萬華區,121.499922,25.041702,8,3,4,4,1,2,4,2,2,3,4,2,0,0,3,12,18,16
298,太原五原路口,大同區,121.516976,25.056458,22,19,18,20,12,12,12,11,4,9,12,8,17,7,12,11,10,13
299,萬華國中,萬華區,121.499358,25.029264,18,20,16,15,14,12,11,9,8,5,7,8,8,13,13,12,12,15
300,信義基隆路口,信義區,121.558731,25.033209,6,6,5,11,4,10,9,10,9,4,11,12,9,2,4,6,0,3
301,林森長春路口,中山區,121.525383,25.055062,12,6,9,14,1,6,6,19,6,1,3,3,7,13,20,7,16,22
302,敦北公園,松山區,121.550711,25.060746,9,12,11,11,9,9,5,4,0,15,18,14,15,15,15,15,15,16
303,安泰街83巷,內湖區,121.617085,25.076691,17,15,14,12,5,5,5,6,5,1,1,2,2,5,6,13,15,18
304,金華公園,大安區,121.531235,25.029902,18,12,1,3,1,3,7,3,4,14,10,11,13,6,28,16,20,29
305,碧山公園,內湖區,121.592253,25.087413,23,20,6,33,17,6,1,13,17,18,21,23,22,23,28,22,33,25
306,捷運古亭站(6號出口),大安區,121.52198,25.027781,24,22,26,23,21,25,30,26,39,34,33,25,9,3,18,10,21,26
307,仁愛安和路口,大安區,121.552076,25.03757,5,12,13,22,20,9,5,7,18,12,10,11,10,6,7,7,8,3
308,西松高中,松山區,121.567127,25.055672,25,21,21,19,16,18,15,13,11,6,7,8,10,18,19,12,15,24
309,三軍總醫院(松山分院),松山區,121.556098,25.05447,27,26,22,14,5,14,12,6,10,8,7,4,7,5,14,15,33,21
310,國立臺北大學(臺北校區),中山區,121.542732,25.057923,16,14,27,28,17,19,18,25,20,17,12,10,5,9,4,5,11,12
311,捷運忠孝新生站(2號出口),中正區,121.532229,25.042392,17,18,20,21,15,19,22,19,24,23,17,6,9,10,0,2,2,1
312,捷運信義安和站(1號出口),大安區,121.552787,25.033323,24,24,19,15,11,11,2,5,17,7,1,6,7,4,3,6,6,2
313,光華商場,中正區,121.532738,25.04515,30,25,13,17,29,31,42,50,44,50,41,28,23,4,9,3,4,6
314,敦化長春路口,松山區,121.54872,25.053614,15,15,24,6,0,9,16,9,7,6,4,18,7,17,9,10,5,9
315,捷運萬隆站(1號出口),文山區,121.539037,25.001447,19,18,19,17,19,16,11,7,9,12,9,11,14,7,2,12,8,11
316,民有一號公園,松山區,121.54763,25.060911,20,20,24,20,16,9,20,23,26,20,20,19,16,14,19,19,19,18
317,雙園國中,萬華區,121.491675,25.026823,22,24,27,25,26,18,15,13,13,15,6,3,1,1,2,7,20,25
318,成功金龍路口,內湖區,121.59484,25.084135,10,15,7,13,19,14,20,18,13,15,12,14,16,10,14,9,9,3
319,民族林森路口,中山區,121.525322,25.068507,5,5,3,12,12,9,8,2,3,4,0,1,5,2,0,3,9,17
320,捷運南京三民站(3號出口),松山區,121.564262,25.051287,12,12,13,9,5,4,9,14,18,11,6,6,0,12,13,9,10,0
321,莒光大埔街口,中正區,121.505085,25.031334,11,8,10,8,10,9,8,10,8,7,8,13,16,21,18,22,31,20
322,永盛公園(民生東路一段23巷),中山區,121.52504,25.058835,19,19,22,19,18,14,16,19,24,25,22,16,25,28,16,8,10,17
323,新興公園,中山區,121.524392,25.061568,5,4,4,2,1,1,8,8,4,3,1,4,3,9,12,16,23,10
324,市立圖書館葫蘆堵分館,士林區,121.5108,25.08221,8,5,6,7,9,10,17,16,17,19,19,2,7,12,7,7,17,13
325,南京東路六段368巷,內湖區,121.58707,25.05827,11,12,12,13,14,15,15,13,13,13,9,7,6,5,6,6,7,7
326,基隆路一段101巷口,信義區,121.56709,25.04525,13,12,5,1,0,12,18,22,19,16,15,6,7,7,7,14,22,24
327,重慶南海路口,中正區,121.51464,25.03158,11,9,9,11,11,12,15,17,16,15,14,16,8,9,7,2,6,7
328,一江公園,中山區,121.53146,25.05316,10,8,0,10,18,14,16,11,11,13,12,9,9,7,7,15,20,17
329,樂群二明水路口,中山區,121.55236,25.07983,12,12,18,23,22,24,25,22,22,20,18,12,8,7,2,7,7,7
330,迪化休閒運動公園,大同區,121.5115,25.07491,12,11,13,15,13,12,9,7,12,14,13,9,10,10,11,12,19,20
331,民族玉門街口,中山區,121.51974,25.06859,11,12,15,21,24,26,29,21,30,14,11,4,18,17,22,17,14,13
332,捷運中山站(2號出口),中山區,121.52193,25.05225,15,20,19,15,16,18,11,14,17,27,17,18,10,14,5,9,2,2
333,復盛公園,松山區,121.561182,25.047428,18,15,15,13,14,13,10,6,15,12,7,17,20,18,18,18,13,14
334,敦化南路二段103巷口,大安區,121.549024,25.028973,8,4,11,16,16,13,14,23,12,2,3,3,4,10,16,22,17,19
335,景文中學,文山區,121.567855,24.986301,13,14,15,16,15,13,14,11,14,12,14,13,7,6,12,14,11,10
336,承德路三段8巷口,大同區,121.51815,25.06382,4,8,9,5,4,4,12,15,9,8,9,6,6,7,5,7,7,7
337,彩虹橋,內湖區,121.57592,25.05301,15,14,13,13,14,13,12,10,11,11,9,7,9,13,9,13,6,8
338,成德國中,南港區,121.58794,25.04573,19,13,19,15,14,10,5,15,12,10,10,5,11,10,14,13,7,13
339,重慶國中,大同區,121.51816,25.07581,20,19,21,19,22,24,22,21,19,18,17,16,16,16,16,19,23,23
340,南京光復路口,松山區,121.55716,25.05143,11,11,15,17,17,12,13,18,11,15,10,0,4,13,12,16,14,15
341,捷運芝山站(1號出口),士林區,121.52243,25.10094,6,4,18,18,18,20,20,18,20,19,18,21,23,17,17,15,15,4
342,文林建民路口,北投區,121.51468,25.10779,24,24,25,21,23,20,16,11,9,12,9,9,10,11,13,13,10,12
343,忠孝東路六段185巷口,南港區,121.58755,25.04904,12,11,9,5,19,19,21,17,13,16,16,6,9,9,9,14,15,23
344,捷運忠孝復興站(5號出口),大安區,121.54401,25.04264,13,13,13,12,9,22,23,21,22,18,11,21,16,29,23,22,2,2
345,中正運動中心,中正區,121.51943,25.03806,14,18,20,10,17,18,6,11,11,6,10,9,24,17,18,17,10,10
346,陽明高中,士林區,121.51669,25.09157,16,22,24,23,21,12,11,10,11,10,11,13,14,13,5,6,7,7
347,博愛寶慶路口,中正區,121.51135,25.04134,4,5,12,15,14,12,13,11,10,11,6,3,2,1,6,0,0,0
348,民生立體停車場,松山區,121.55945,25.05794,15,13,6,5,9,7,10,9,5,8,9,1,5,6,10,13,20,10
349,重慶酒泉街口,大同區,121.51364,25.07183,18,13,18,15,15,11,9,10,5,8,9,14,7,11,11,7,4,8
350,復興南路二段128巷口,大安區,121.54336,25.02904,10,24,21,21,22,15,12,14,8,15,12,2,2,9,11,21,27,20
351,中山青島路口,中正區,121.51954,25.04469,23,26,31,24,29,25,24,30,32,31,35,24,24,27,17,17,9,9
352,民權迪化街口,大同區,121.50944,25.06318,7,6,5,3,2,1,4,7,9,10,10,2,8,2,0,7,8,10
353,紀州庵,中正區,121.52049,25.02088,20,28,22,23,17,15,14,8,10,15,14,6,9,14,7,7,8,10
354,建國濟南路口,大安區,121.538084,25.040033,14,11,15,18,21,6,10,14,17,17,17,13,9,3,9,4,8,9
355,福山公園,南港區,121.61759,25.04478,14,14,10,9,13,12,14,17,16,14,16,14,17,10,14,12,20,16
356,臺北市網球中心,內湖區,121.59749,25.0674,15,11,12,12,13,10,8,9,5,4,4,2,16,12,14,13,13,15
357,松友公園,信義區,121.57636,25.03423,13,9,11,16,13,12,13,9,5,2,0,5,4,6,10,7,15,16
358,新明成功路口,內湖區,121.5911,25.06058,12,11,9,8,8,8,7,12,11,10,9,6,5,5,4,4,9,8
359,健安新城,松山區,121.56358,25.05601,25,26,10,1,12,5,10,8,7,4,3,5,1,13,6,9,17,22
360,民權建國路口,中山區,121.53754,25.06252,28,29,26,30,33,24,30,25,25,24,25,23,31,28,14,15,24,27
361,振興醫院,北投區,121.5222,25.1177,14,24,23,20,18,11,14,11,18,19,14,3,4,6,14,13,11,14
362,和平金山路口,大安區,121.52533,25.02672,11,9,4,8,9,8,15,16,20,16,19,4,8,7,9,8,3,3
363,復興南路一段340巷口,大安區,121.5435,25.03617,21,26,21,20,21,21,17,17,18,21,20,14,14,14,6,15,5,4
364,嘉興公園,大安區,121.55219,25.02109,16,14,27,26,18,38,30,25,25,19,19,21,2,2,8,22,25,14
365,陽明大學,北投區,121.51223,25.11912,38,36,19,29,25,19,22,16,13,13,13,8,8,14,13,18,19,27
366,碧湖公園,內湖區,121.58287,25.07988,20,20,19,18,17,17,14,12,13,14,14,14,12,21,24,12,13,13
367,豐年公園,北投區,121.497019,25.13597,11,7,7,4,2,4,5,9,6,3,0,9,15,15,17,20,19,19
368,臺灣戲曲中心,士林區,121.51979,25.10208,20,20,20,20,20,21,20,21,21,19,19,15,16,17,17,17,18,18
369,世新大學,文山區,121.54361,24.98862,3,1,18,19,20,17,17,14,13,14,11,8,3,3,4,12,20,19
370,新和國小,萬華區,121.50242,25.02656,18,15,11,9,9,8,8,2,2,5,4,4,0,7,5,11,24,26
371,南門國中,中正區,121.50834,25.03532,11,11,13,12,9,4,6,9,11,13,11,11,4,1,4,8,7,5
372,重慶民族路口,大同區,121.51359,25.06825,11,10,10,8,10,10,14,17,11,11,4,3,5,11,11,7,15,19
373,中崙福成宮,松山區,121.546635,25.04525,9,12,8,8,11,16,19,23,24,23,19,17,18,25,27,22,21,22
374,麗湖國小,內湖區,121.602225,25.073322,4,4,7,6,5,5,4,4,3,3,1,3,6,7,10,10,10,10
375,銘傳大學,士林區,121.526766,25.087714,10,9,11,12,11,11,11,8,11,15,13,22,32,38,28,27,23,16
376,民生建國路口,中山區,121.536915,25.057778,5,5,9,6,7,8,4,5,5,6,7,1,3,4,2,4,4,6
377,南港路二段178巷口,南港區,121.599693,25.053675,8,8,7,5,5,5,1,2,2,2,2,11,10,9,11,12,14,11
378,陽光街321巷口,內湖區,121.578691,25.073193,5,6,7,10,13,17,15,18,19,20,18,11,13,13,13,12,15,15
379,春光公園,信義區,121.580762,25.042619,22,21,22,23,23,24,24,26,25,22,19,16,22,24,11,18,27,29
380,塔悠疏散門,松山區,121.567899,25.064713,9,9,8,8,10,8,7,9,11,10,11,13,9,10,11,14,17,18
381,民權東路六段15巷,內湖區,121.578125,25.06853,7,7,7,6,9,10,10,9,10,14,14,13,16,16,15,14,15,14
382,聯合醫院和平院區,中正區,121.50639,25.03516,25,24,34,37,37,35,28,27,25,25,22,12,14,14,15,18,20,15
383,一壽橋,文山區,121.55545,24.97848,15,14,11,10,13,16,18,16,17,16,17,19,7,5,3,4,7,11
384,松基公園,松山區,121.5448,25.05491,20,21,18,18,17,16,12,15,9,11,6,3,7,3,3,11,13,12
385,和興路26巷口,文山區,121.54531,24.9856,17,16,18,18,12,12,11,12,13,14,14,13,7,7,15,15,23,24
386,錦州吉林路口,中山區,121.52981,25.06029,20,20,23,20,18,20,14,17,19,13,10,7,10,9,11,16,21,16
387,吳興街260巷,信義區,121.56316,25.0261,9,18,9,17,7,9,3,3,7,13,13,12,9,13,25,13,20,7
388,景華街128巷口,文山區,121.547092,24.995563,13,7,15,13,14,10,4,2,1,12,11,5,6,16,6,12,11,13
389,福德國小,信義區,121.586245,25.038324,19,23,21,17,8,16,5,4,8,3,0,6,8,3,7,11,23,9
390,稻香重三路口,北投區,121.489594,25.139937,21,22,22,23,21,18,13,9,8,6,6,7,10,11,14,18,14,15
391,景仁公園,文山區,121.540295,24.9966,17,16,15,19,16,13,16,12,12,12,11,10,13,6,3,6,16,17
392,南京東興路口,松山區,121.565347,25.051489,11,4,14,7,8,7,6,13,12,2,1,2,3,5,4,8,0,10
393,內溝溪生態展示館,內湖區,121.623062,25.087217,10,11,10,10,7,7,7,7,7,7,7,8,8,8,8,7,7,7
394,松德虎林街口,信義區,121.576248,25.038352,19,19,14,7,15,19,16,18,12,13,15,17,12,11,19,20,3,13
395,安強公園,信義區,121.575413,25.036844,10,24,22,12,7,3,1,9,17,17,17,13,12,0,2,13,9,13
396,新東街51巷口,松山區,121.563318,25.061501,16,17,7,11,9,10,14,11,10,13,10,11,12,10,9,11,19,21
397,劍潭海外青年活動中心,士林區,121.5237,25.079603,17,17,24,23,18,23,31,31,29,26,24,23,24,24,27,32,19,19
398,聯合醫院陽明院區,士林區,121.531949,25.104546,5,7,10,9,13,11,9,12,6,7,7,8,7,7,4,12,17,17
399,和平龍泉街口,大安區,121.52946,25.026404,0,0,0,0,0,0,0,0,0,0,0,0,0,0,0,0,0,0
400,和平敦化路口,大安區,121.549076,25.02444,8,9,10,12,13,12,11,6,5,4,1,2,11,10,10,12,14,12
401,南京新生路口,中山區,121.527661,25.051944,23,16,18,18,16,12,9,6,10,8,5,2,1,2,3,9,25,25
402,下灣公園,內湖區,121.595611,25.065159,3,3,1,1,2,3,1,8,8,7,7,7,6,5,4,6,10,10
403,捷運內湖站(1號出口),內湖區,121.593929,25.083868,6,10,5,8,12,15,18,14,12,5,4,13,20,18,9,13,7,14
404,民族延平路口,大同區,121.510569,25.068653,28,29,14,14,16,12,11,10,11,15,7,4,6,10,7,17,21,24
